datetime,service_date,route_id,route_name,trip_id,direction_id,direction_name,stop_id,stop_name,stop_sequence,vehicle_id,scheduled_arrival,actual_arrival,delay_min,headway_min,passengers_waiting,passengers_boarded,passengers_alighted,passengers_onboard,capacity,occupancy_rate,crowding_level,dwell_time_sec,door_open_count,wheelchair_boardings,bike_boardings,lat,lon,weather_conditions,weather_hour,peak,trip_start_time,trip_end_time,trip_vehicle_id,vehicle_model,vehicle_capacity,vehicle_wheelchair_capacity,vehicle_bike_rack,stop_zone,route_long_name,route_length_km,route_color,weather_temp_c,weather_precip_mm,weather_hourly_conditions
10/25/2025 12:14,10/25/2025,A,Route A - Downtown Loop,A-0-20251025-04,0,Outbound,A04,A-Stop 4,4,A04,10/25/2025 12:14,10/25/2025 12:14,-0.3,120,4,1,2,2,36,0.06,Low,27,1,0,0,42.446197,-76.490794,Clear,10/25/2025 12:00,Off-peak,12:00:00,13:00:00,A04,Proterra ZX5,36,2,TRUE,Urban,Route A - Downtown Loop,12.3,#1f77b4,18.4,0,Clear
10/25/2025 12:14,10/25/2025,A,Route A - Downtown Loop,A-1-20251025-04,1,Inbound,A07,A-Stop 7,4,A05,10/25/2025 12:14,10/25/2025 12:14,0.03,120,4,0,2,0,50,0,Low,29,1,0,0,42.451454,-76.482663,Clear,10/25/2025 12:00,Off-peak,12:00:00,13:00:00,A05,Proterra ZX5,50,3,TRUE,Suburban,Route A - Downtown Loop,12.3,#1f77b4,18.4,0,Clear
10/25/2025 12:15,10/25/2025,C,Route C - Airport Connector,C-1-20251025-04,1,Inbound,C07,C-Stop 7,4,C01,10/25/2025 12:15,10/25/2025 12:15,0.22,120,3,2,0,2,45,0.04,Low,25,1,0,0,42.47153,-76.441841,Clear,10/25/2025 12:00,Off-peak,12:00:00,13:00:00,C01,New Flyer Xcelsior,45,2,FALSE,Suburban,Route C - Airport Connector,25.4,#2ca02c,18.4,0,Clear
10/25/2025 12:15,10/25/2025,C,Route C - Airport Connector,C-0-20251025-04,0,Outbound,C04,C-Stop 4,4,C04,10/25/2025 12:15,10/25/2025 12:15,0.2,120,2,1,2,0,40,0,Low,18,1,0,0,42.465792,-76.450726,Clear,10/25/2025 12:00,Off-peak,12:00:00,13:00:00,C04,Gillig Low Floor,40,2,TRUE,Urban,Route C - Airport Connector,25.4,#2ca02c,18.4,0,Clear
10/25/2025 12:16,10/25/2025,B,Route B - University Express,B-0-20251025-04,0,Outbound,B04,B-Stop 4,4,B03,10/25/2025 12:15,10/25/2025 12:16,0.12,120,1,1,1,0,42,0,Low,24,1,0,1,42.455574,-76.471051,Clear,10/25/2025 12:00,Off-peak,12:00:00,13:00:00,B03,Proterra ZX5,42,2,TRUE,Urban,Route B - University Express,18.7,#ff7f0e,18.4,0,Clear
10/25/2025 12:19,10/25/2025,A,Route A - Downtown Loop,A-1-20251025-04,1,Inbound,A06,A-Stop 6,5,A05,10/25/2025 12:19,10/25/2025 12:19,0.08,120,5,0,1,0,50,0,Low,15,1,0,0,42.450163,-76.485189,Clear,10/25/2025 12:00,Off-peak,12:00:00,13:00:00,A05,Proterra ZX5,50,3,TRUE,Urban,Route A - Downtown Loop,12.3,#1f77b4,18.4,0,Clear
10/25/2025 12:19,10/25/2025,A,Route A - Downtown Loop,A-0-20251025-04,0,Outbound,A05,A-Stop 5,5,A04,10/25/2025 12:19,10/25/2025 12:19,-0.06,120,3,3,1,4,36,0.11,Low,26,1,0,0,42.448136,-76.487743,Clear,10/25/2025 12:00,Off-peak,12:00:00,13:00:00,A04,Proterra ZX5,36,2,TRUE,Urban,Route A - Downtown Loop,12.3,#1f77b4,18.4,0,Clear
10/25/2025 12:19,10/25/2025,C,Route C - Airport Connector,C-0-20251025-04,0,Outbound,C05,C-Stop 5,5,C04,10/25/2025 12:20,10/25/2025 12:19,-0.3,120,3,2,1,1,40,0.03,Low,19,1,0,1,42.468418,-76.448697,Clear,10/25/2025 12:00,Off-peak,12:00:00,13:00:00,C04,Gillig Low Floor,40,2,TRUE,Urban,Route C - Airport Connector,25.4,#2ca02c,18.4,0,Clear
10/25/2025 12:20,10/25/2025,B,Route B - University Express,B-1-20251025-04,1,Inbound,B06,B-Stop 6,5,B05,10/25/2025 12:19,10/25/2025 12:20,0.2,120,6,3,1,4,42,0.1,Low,24,1,0,0,42.459933,-76.464251,Clear,10/25/2025 12:00,Off-peak,12:00:00,13:00:00,B05,Gillig Low Floor,42,2,TRUE,Urban,Route B - University Express,18.7,#ff7f0e,18.4,0,Clear
10/25/2025 12:21,10/25/2025,B,Route B - University Express,B-0-20251025-04,0,Outbound,B05,B-Stop 5,5,B03,10/25/2025 12:21,10/25/2025 12:21,0.03,120,0,0,0,0,42,0,Low,15,1,0,0,42.458058,-76.468327,Clear,10/25/2025 12:00,Off-peak,12:00:00,13:00:00,B03,Proterra ZX5,42,2,TRUE,Urban,Route B - University Express,18.7,#ff7f0e,18.4,0,Clear
10/25/2025 12:22,10/25/2025,C,Route C - Airport Connector,C-1-20251025-04,1,Inbound,C06,C-Stop 6,5,C01,10/25/2025 12:21,10/25/2025 12:22,0.69,120,1,1,1,2,45,0.04,Low,24,1,0,0,42.470305,-76.444985,Clear,10/25/2025 12:00,Off-peak,12:00:00,13:00:00,C01,New Flyer Xcelsior,45,2,FALSE,Urban,Route C - Airport Connector,25.4,#2ca02c,18.4,0,Clear
10/25/2025 12:24,10/25/2025,A,Route A - Downtown Loop,A-1-20251025-04,1,Inbound,A05,A-Stop 5,6,A05,10/25/2025 12:24,10/25/2025 12:24,0.17,120,4,2,4,0,50,0,Low,27,1,0,0,42.447766,-76.48795,Clear,10/25/2025 12:00,Off-peak,12:00:00,13:00:00,A05,Proterra ZX5,50,3,TRUE,Urban,Route A - Downtown Loop,12.3,#1f77b4,18.4,0,Clear
10/25/2025 12:24,10/25/2025,A,Route A - Downtown Loop,A-0-20251025-04,0,Outbound,A06,A-Stop 6,6,A04,10/25/2025 12:24,10/25/2025 12:24,-0.37,120,4,2,3,3,36,0.08,Low,25,1,0,0,42.449498,-76.48548,Clear,10/25/2025 12:00,Off-peak,12:00:00,13:00:00,A04,Proterra ZX5,36,2,TRUE,Urban,Route A - Downtown Loop,12.3,#1f77b4,18.4,0,Clear
10/25/2025 12:25,10/25/2025,C,Route C - Airport Connector,C-0-20251025-04,0,Outbound,C06,C-Stop 6,6,C04,10/25/2025 12:25,10/25/2025 12:25,-0.09,120,3,2,0,3,40,0.07,Low,24,1,0,0,42.470335,-76.444763,Clear,10/25/2025 12:00,Off-peak,12:00:00,13:00:00,C04,Gillig Low Floor,40,2,TRUE,Urban,Route C - Airport Connector,25.4,#2ca02c,18.4,0,Clear
10/25/2025 12:25,10/25/2025,B,Route B - University Express,B-0-20251025-04,0,Outbound,B06,B-Stop 6,6,B03,10/25/2025 12:25,10/25/2025 12:25,0.57,120,2,1,1,0,42,0,Low,26,1,0,0,42.459669,-76.464149,Clear,10/25/2025 12:00,Off-peak,12:00:00,13:00:00,B03,Proterra ZX5,42,2,TRUE,Urban,Route B - University Express,18.7,#ff7f0e,18.4,0,Clear
10/25/2025 12:25,10/25/2025,B,Route B - University Express,B-1-20251025-04,1,Inbound,B05,B-Stop 5,6,B05,10/25/2025 12:25,10/25/2025 12:25,0.86,120,2,0,1,3,42,0.07,Low,26,1,1,1,42.45758,-76.468355,Clear,10/25/2025 12:00,Off-peak,12:00:00,13:00:00,B05,Gillig Low Floor,42,2,TRUE,Urban,Route B - University Express,18.7,#ff7f0e,18.4,0,Clear
10/25/2025 12:28,10/25/2025,C,Route C - Airport Connector,C-1-20251025-04,1,Inbound,C05,C-Stop 5,6,C01,10/25/2025 12:27,10/25/2025 12:28,0.92,120,3,3,1,4,45,0.09,Low,18,1,0,0,42.468364,-76.448327,Clear,10/25/2025 12:00,Off-peak,12:00:00,13:00:00,C01,New Flyer Xcelsior,45,2,FALSE,Urban,Route C - Airport Connector,25.4,#2ca02c,18.4,0,Clear
10/25/2025 12:28,10/25/2025,A,Route A - Downtown Loop,A-1-20251025-04,1,Inbound,A04,A-Stop 4,7,A05,10/25/2025 12:29,10/25/2025 12:28,-0.7,120,3,3,1,2,50,0.04,Low,20,1,0,0,42.446777,-76.491055,Clear,10/25/2025 12:00,Off-peak,12:00:00,13:00:00,A05,Proterra ZX5,50,3,TRUE,Urban,Route A - Downtown Loop,12.3,#1f77b4,18.4,0,Clear
10/25/2025 12:29,10/25/2025,A,Route A - Downtown Loop,A-0-20251025-04,0,Outbound,A07,A-Stop 7,7,A04,10/25/2025 12:30,10/25/2025 12:29,-0.14,120,3,2,1,4,36,0.11,Low,24,1,1,0,42.4519,-76.482577,Clear,10/25/2025 12:00,Off-peak,12:00:00,13:00:00,A04,Proterra ZX5,36,2,TRUE,Suburban,Route A - Downtown Loop,12.3,#1f77b4,18.4,0,Clear
10/25/2025 12:30,10/25/2025,B,Route B - University Express,B-1-20251025-04,1,Inbound,B04,B-Stop 4,7,B05,10/25/2025 12:30,10/25/2025 12:30,-0.04,120,2,1,3,1,42,0.02,Low,32,1,0,0,42.455407,-76.470994,Clear,10/25/2025 12:00,Off-peak,12:00:00,13:00:00,B05,Gillig Low Floor,42,2,TRUE,Urban,Route B - University Express,18.7,#ff7f0e,18.4,0,Clear
10/25/2025 12:30,10/25/2025,B,Route B - University Express,B-0-20251025-04,0,Outbound,B07,B-Stop 7,7,B03,10/25/2025 12:29,10/25/2025 12:30,0.47,120,4,0,0,0,42,0,Low,16,0,0,0,42.461798,-76.462439,Clear,10/25/2025 12:00,Off-peak,12:00:00,13:00:00,B03,Proterra ZX5,42,2,TRUE,Suburban,Route B - University Express,18.7,#ff7f0e,18.4,0,Clear
10/25/2025 12:30,10/25/2025,C,Route C - Airport Connector,C-0-20251025-04,0,Outbound,C07,C-Stop 7,7,C04,10/25/2025 12:30,10/25/2025 12:30,0.23,120,7,3,1,5,40,0.12,Low,21,1,0,0,42.471988,-76.442019,Clear,10/25/2025 12:00,Off-peak,12:00:00,13:00:00,C04,Gillig Low Floor,40,2,TRUE,Suburban,Route C - Airport Connector,25.4,#2ca02c,18.4,0,Clear
10/25/2025 12:32,10/25/2025,C,Route C - Airport Connector,C-1-20251025-04,1,Inbound,C04,C-Stop 4,7,C01,10/25/2025 12:32,10/25/2025 12:32,0.36,120,5,3,0,7,45,0.16,Low,26,1,0,0,42.465828,-76.45046,Clear,10/25/2025 12:00,Off-peak,12:00:00,13:00:00,C01,New Flyer Xcelsior,45,2,FALSE,Urban,Route C - Airport Connector,25.4,#2ca02c,18.4,0,Clear
10/25/2025 12:32,10/25/2025,A,Route A - Downtown Loop,A-1-20251025-04,1,Inbound,A03,A-Stop 3,8,A05,10/25/2025 12:33,10/25/2025 12:32,-0.49,120,0,0,1,1,50,0.02,Low,23,1,0,0,42.44416,-76.494209,Clear,10/25/2025 12:00,Off-peak,12:00:00,13:00:00,A05,Proterra ZX5,50,3,TRUE,Urban,Route A - Downtown Loop,12.3,#1f77b4,18.4,0,Clear
10/25/2025 12:34,10/25/2025,A,Route A - Downtown Loop,A-0-20251025-04,0,Outbound,A08,A-Stop 8,8,A04,10/25/2025 12:34,10/25/2025 12:34,-0.02,120,2,1,2,3,36,0.08,Low,24,1,0,0,42.453687,-76.478861,Clear,10/25/2025 12:00,Off-peak,12:00:00,13:00:00,A04,Proterra ZX5,36,2,TRUE,Suburban,Route A - Downtown Loop,12.3,#1f77b4,18.4,0,Clear
10/25/2025 12:35,10/25/2025,B,Route B - University Express,B-0-20251025-04,0,Outbound,B08,B-Stop 8,8,B03,10/25/2025 12:35,10/25/2025 12:35,0.22,120,0,0,1,0,42,0,Low,22,1,0,0,42.464298,-76.459241,Clear,10/25/2025 12:00,Off-peak,12:00:00,13:00:00,B03,Proterra ZX5,42,2,TRUE,Suburban,Route B - University Express,18.7,#ff7f0e,18.4,0,Clear
10/25/2025 12:36,10/25/2025,B,Route B - University Express,B-1-20251025-04,1,Inbound,B03,B-Stop 3,8,B05,10/25/2025 12:35,10/25/2025 12:36,0.56,120,2,0,1,0,42,0,Low,21,1,0,0,42.453892,-76.473626,Clear,10/25/2025 12:00,Off-peak,12:00:00,13:00:00,B05,Gillig Low Floor,42,2,TRUE,Urban,Route B - University Express,18.7,#ff7f0e,18.4,0,Clear
10/25/2025 12:36,10/25/2025,C,Route C - Airport Connector,C-0-20251025-04,0,Outbound,C08,C-Stop 8,8,C04,10/25/2025 12:35,10/25/2025 12:36,0.4,120,4,1,1,5,40,0.12,Low,33,1,0,1,42.47426,-76.438803,Clear,10/25/2025 12:00,Off-peak,12:00:00,13:00:00,C04,Gillig Low Floor,40,2,TRUE,Suburban,Route C - Airport Connector,25.4,#2ca02c,18.4,0,Clear
10/25/2025 12:38,10/25/2025,C,Route C - Airport Connector,C-1-20251025-04,1,Inbound,C03,C-Stop 3,8,C01,10/25/2025 12:37,10/25/2025 12:38,0.99,120,0,0,3,4,45,0.09,Low,21,1,0,0,42.463252,-76.454109,Clear,10/25/2025 12:00,Off-peak,12:00:00,13:00:00,C01,New Flyer Xcelsior,45,2,FALSE,Urban,Route C - Airport Connector,25.4,#2ca02c,18.4,0,Clear
10/25/2025 12:39,10/25/2025,A,Route A - Downtown Loop,A-1-20251025-04,1,Inbound,A02,A-Stop 2,9,A05,10/25/2025 12:38,10/25/2025 12:39,1.11,120,2,2,1,2,50,0.04,Low,30,1,0,1,42.44188,-76.496872,Clear,10/25/2025 12:00,Off-peak,12:00:00,13:00:00,A05,Proterra ZX5,50,3,TRUE,Urban,Route A - Downtown Loop,12.3,#1f77b4,18.4,0,Clear
10/25/2025 12:39,10/25/2025,B,Route B - University Express,B-1-20251025-04,1,Inbound,B02,B-Stop 2,9,B05,10/25/2025 12:40,10/25/2025 12:39,-0.42,120,2,2,0,2,42,0.05,Low,33,1,0,0,42.451986,-76.477574,Clear,10/25/2025 12:00,Off-peak,12:00:00,13:00:00,B05,Gillig Low Floor,42,2,TRUE,Urban,Route B - University Express,18.7,#ff7f0e,18.4,0,Clear
10/25/2025 12:40,10/25/2025,B,Route B - University Express,B-0-20251025-04,0,Outbound,B09,B-Stop 9,9,B03,10/25/2025 12:40,10/25/2025 12:40,-0.8,120,4,3,1,2,42,0.05,Low,29,1,0,0,42.46625,-76.456864,Clear,10/25/2025 12:00,Off-peak,12:00:00,13:00:00,B03,Proterra ZX5,42,2,TRUE,Suburban,Route B - University Express,18.7,#ff7f0e,18.4,0,Clear
10/25/2025 12:40,10/25/2025,A,Route A - Downtown Loop,A-0-20251025-04,0,Outbound,A09,A-Stop 9,9,A04,10/25/2025 12:40,10/25/2025 12:40,0.52,120,3,3,2,4,36,0.11,Low,30,1,0,0,42.455819,-76.475978,Clear,10/25/2025 12:00,Off-peak,12:00:00,13:00:00,A04,Proterra ZX5,36,2,TRUE,Suburban,Route A - Downtown Loop,12.3,#1f77b4,18.4,0,Clear
10/25/2025 12:40,10/25/2025,C,Route C - Airport Connector,C-0-20251025-04,0,Outbound,C09,C-Stop 9,9,C04,10/25/2025 12:40,10/25/2025 12:40,0.32,120,0,0,1,4,40,0.1,Low,30,1,0,0,42.475571,-76.436444,Clear,10/25/2025 12:00,Off-peak,12:00:00,13:00:00,C04,Gillig Low Floor,40,2,TRUE,Suburban,Route C - Airport Connector,25.4,#2ca02c,18.4,0,Clear
10/25/2025 12:43,10/25/2025,A,Route A - Downtown Loop,A-1-20251025-04,1,Inbound,A01,A-Stop 1,10,A05,10/25/2025 12:43,10/25/2025 12:43,-0.33,120,1,1,2,1,50,0.02,Low,22,1,0,0,42.439984,-76.500112,Clear,10/25/2025 12:00,Off-peak,12:00:00,13:00:00,A05,Proterra ZX5,50,3,TRUE,Urban,Route A - Downtown Loop,12.3,#1f77b4,18.4,0,Clear
10/25/2025 12:43,10/25/2025,C,Route C - Airport Connector,C-1-20251025-04,1,Inbound,C02,C-Stop 2,9,C01,10/25/2025 12:42,10/25/2025 12:43,1.27,120,3,2,1,5,45,0.11,Low,34,1,0,0,42.462037,-76.457172,Clear,10/25/2025 12:00,Off-peak,12:00:00,13:00:00,C01,New Flyer Xcelsior,45,2,FALSE,Urban,Route C - Airport Connector,25.4,#2ca02c,18.4,0,Clear
10/25/2025 12:44,10/25/2025,C,Route C - Airport Connector,C-0-20251025-04,0,Outbound,C10,C-Stop 10,10,C04,10/25/2025 12:44,10/25/2025 12:44,-0.68,120,5,2,2,4,40,0.1,Low,28,1,0,0,42.478111,-76.432722,Clear,10/25/2025 12:00,Off-peak,12:00:00,13:00:00,C04,Gillig Low Floor,40,2,TRUE,Suburban,Route C - Airport Connector,25.4,#2ca02c,18.4,0,Clear
10/25/2025 12:45,10/25/2025,B,Route B - University Express,B-1-20251025-04,1,Inbound,B01,B-Stop 1,10,B05,10/25/2025 12:44,10/25/2025 12:45,0.62,120,2,2,1,3,42,0.07,Low,23,1,0,0,42.450342,-76.480088,Clear,10/25/2025 12:00,Off-peak,12:00:00,13:00:00,B05,Gillig Low Floor,42,2,TRUE,Urban,Route B - University Express,18.7,#ff7f0e,18.4,0,Clear
10/25/2025 12:45,10/25/2025,A,Route A - Downtown Loop,A-0-20251025-04,0,Outbound,A10,A-Stop 10,10,A04,10/25/2025 12:45,10/25/2025 12:45,0.25,120,2,1,2,3,36,0.08,Low,30,1,0,0,42.457905,-76.473353,Clear,10/25/2025 12:00,Off-peak,12:00:00,13:00:00,A04,Proterra ZX5,36,2,TRUE,Suburban,Route A - Downtown Loop,12.3,#1f77b4,18.4,0,Clear
10/25/2025 12:45,10/25/2025,B,Route B - University Express,B-0-20251025-04,0,Outbound,B10,B-Stop 10,10,B03,10/25/2025 12:46,10/25/2025 12:45,-0.74,120,0,0,3,0,42,0,Low,23,1,0,0,42.467595,-76.452655,Clear,10/25/2025 12:00,Off-peak,12:00:00,13:00:00,B03,Proterra ZX5,42,2,TRUE,Suburban,Route B - University Express,18.7,#ff7f0e,18.4,0,Clear
10/25/2025 12:47,10/25/2025,C,Route C - Airport Connector,C-1-20251025-04,1,Inbound,C01,C-Stop 1,10,C01,10/25/2025 12:47,10/25/2025 12:47,0.16,120,1,1,0,6,45,0.13,Low,24,1,0,0,42.460344,-76.45988,Clear,10/25/2025 12:00,Off-peak,12:00:00,13:00:00,C01,New Flyer Xcelsior,45,2,FALSE,Urban,Route C - Airport Connector,25.4,#2ca02c,18.4,0,Clear
10/25/2025 13:59,10/25/2025,A,Route A - Downtown Loop,A-1-20251025-05,1,Inbound,A10,A-Stop 10,1,A02,10/25/2025 14:00,10/25/2025 13:59,-0.26,120,1,0,0,0,40,0,Low,15,0,0,0,42.457921,-76.473713,Clear,10/25/2025 13:00,Off-peak,14:00:00,15:00:00,A02,Proterra ZX5,40,2,TRUE,Suburban,Route A - Downtown Loop,12.3,#1f77b4,17.4,0.05,Clear
10/25/2025 13:59,10/25/2025,C,Route C - Airport Connector,C-1-20251025-05,1,Inbound,C10,C-Stop 10,1,C04,10/25/2025 14:00,10/25/2025 13:59,-0.23,120,4,0,0,0,40,0,Low,15,0,0,0,42.478192,-76.432842,Clear,10/25/2025 13:00,Off-peak,14:00:00,15:00:00,C04,Gillig Low Floor,40,2,TRUE,Suburban,Route C - Airport Connector,25.4,#2ca02c,17.4,0.05,Clear
10/25/2025 13:59,10/25/2025,B,Route B - University Express,B-1-20251025-05,1,Inbound,B10,B-Stop 10,1,B04,10/25/2025 14:00,10/25/2025 13:59,-0.2,120,0,0,0,0,36,0,Low,15,0,0,0,42.467247,-76.45334,Clear,10/25/2025 13:00,Off-peak,14:00:00,15:00:00,B04,Proterra ZX5,36,3,TRUE,Suburban,Route B - University Express,18.7,#ff7f0e,17.4,0.05,Clear
10/25/2025 14:00,10/25/2025,B,Route B - University Express,B-0-20251025-05,0,Outbound,B01,B-Stop 1,1,B03,10/25/2025 14:00,10/25/2025 14:00,0.02,120,0,0,1,0,42,0,Low,25,1,0,0,42.450826,-76.47992,Clear,10/25/2025 14:00,Off-peak,14:00:00,15:00:00,B03,Proterra ZX5,42,2,TRUE,Urban,Route B - University Express,18.7,#ff7f0e,16.7,0,Clear
10/25/2025 14:00,10/25/2025,A,Route A - Downtown Loop,A-0-20251025-05,0,Outbound,A01,A-Stop 1,1,A04,10/25/2025 14:00,10/25/2025 14:00,0.56,120,5,1,0,1,36,0.03,Low,32,1,0,0,42.440043,-76.50018,Clear,10/25/2025 14:00,Off-peak,14:00:00,15:00:00,A04,Proterra ZX5,36,2,TRUE,Urban,Route A - Downtown Loop,12.3,#1f77b4,16.7,0,Clear
10/25/2025 14:00,10/25/2025,C,Route C - Airport Connector,C-0-20251025-05,0,Outbound,C01,C-Stop 1,1,C05,10/25/2025 14:00,10/25/2025 14:00,0.83,120,3,3,0,3,36,0.08,Low,21,1,0,0,42.460122,-76.460094,Clear,10/25/2025 14:00,Off-peak,14:00:00,15:00:00,C05,Gillig Low Floor,36,2,FALSE,Urban,Route C - Airport Connector,25.4,#2ca02c,16.7,0,Clear
10/25/2025 14:04,10/25/2025,A,Route A - Downtown Loop,A-0-20251025-05,0,Outbound,A02,A-Stop 2,2,A04,10/25/2025 14:04,10/25/2025 14:04,0.54,120,0,0,2,0,36,0,Low,29,1,0,0,42.442064,-76.49657,Clear,10/25/2025 14:00,Off-peak,14:00:00,15:00:00,A04,Proterra ZX5,36,2,TRUE,Urban,Route A - Downtown Loop,12.3,#1f77b4,16.7,0,Clear
10/25/2025 14:04,10/25/2025,B,Route B - University Express,B-0-20251025-05,0,Outbound,B02,B-Stop 2,2,B03,10/25/2025 14:04,10/25/2025 14:04,0.23,120,1,0,6,0,42,0,Low,31,1,0,0,42.452192,-76.477552,Clear,10/25/2025 14:00,Off-peak,14:00:00,15:00:00,B03,Proterra ZX5,42,2,TRUE,Urban,Route B - University Express,18.7,#ff7f0e,16.7,0,Clear
10/25/2025 14:05,10/25/2025,B,Route B - University Express,B-1-20251025-05,1,Inbound,B09,B-Stop 9,2,B04,10/25/2025 14:05,10/25/2025 14:05,0.3,120,5,2,1,1,36,0.03,Low,19,1,0,0,42.466362,-76.456402,Clear,10/25/2025 14:00,Off-peak,14:00:00,15:00:00,B04,Proterra ZX5,36,3,TRUE,Suburban,Route B - University Express,18.7,#ff7f0e,16.7,0,Clear
10/25/2025 14:05,10/25/2025,C,Route C - Airport Connector,C-0-20251025-05,0,Outbound,C02,C-Stop 2,2,C05,10/25/2025 14:05,10/25/2025 14:05,-0.04,120,1,1,1,3,36,0.08,Low,26,1,0,0,42.462343,-76.456908,Clear,10/25/2025 14:00,Off-peak,14:00:00,15:00:00,C05,Gillig Low Floor,36,2,FALSE,Urban,Route C - Airport Connector,25.4,#2ca02c,16.7,0,Clear
10/25/2025 14:05,10/25/2025,C,Route C - Airport Connector,C-1-20251025-05,1,Inbound,C09,C-Stop 9,2,C04,10/25/2025 14:05,10/25/2025 14:05,0.25,120,4,4,3,1,40,0.03,Low,31,1,0,0,42.475787,-76.435934,Clear,10/25/2025 14:00,Off-peak,14:00:00,15:00:00,C04,Gillig Low Floor,40,2,TRUE,Suburban,Route C - Airport Connector,25.4,#2ca02c,16.7,0,Clear
10/25/2025 14:06,10/25/2025,A,Route A - Downtown Loop,A-1-20251025-05,1,Inbound,A09,A-Stop 9,2,A02,10/25/2025 14:04,10/25/2025 14:06,1.29,120,1,1,0,1,40,0.03,Low,16,1,0,0,42.456006,-76.475872,Clear,10/25/2025 14:00,Off-peak,14:00:00,15:00:00,A02,Proterra ZX5,40,2,TRUE,Suburban,Route A - Downtown Loop,12.3,#1f77b4,16.7,0,Clear
10/25/2025 14:08,10/25/2025,A,Route A - Downtown Loop,A-0-20251025-05,0,Outbound,A03,A-Stop 3,3,A04,10/25/2025 14:08,10/25/2025 14:08,-0.13,120,3,1,1,0,36,0,Low,16,1,0,0,42.444156,-76.493968,Clear,10/25/2025 14:00,Off-peak,14:00:00,15:00:00,A04,Proterra ZX5,36,2,TRUE,Urban,Route A - Downtown Loop,12.3,#1f77b4,16.7,0,Clear
10/25/2025 14:09,10/25/2025,A,Route A - Downtown Loop,A-1-20251025-05,1,Inbound,A08,A-Stop 8,3,A02,10/25/2025 14:09,10/25/2025 14:09,-0.82,120,3,3,3,1,40,0.03,Low,29,1,1,0,42.453257,-76.479106,Clear,10/25/2025 14:00,Off-peak,14:00:00,15:00:00,A02,Proterra ZX5,40,2,TRUE,Suburban,Route A - Downtown Loop,12.3,#1f77b4,16.7,0,Clear
10/25/2025 14:09,10/25/2025,B,Route B - University Express,B-1-20251025-05,1,Inbound,B08,B-Stop 8,3,B04,10/25/2025 14:09,10/25/2025 14:09,0.22,120,3,1,2,0,36,0,Low,29,1,0,1,42.464209,-76.459422,Clear,10/25/2025 14:00,Off-peak,14:00:00,15:00:00,B04,Proterra ZX5,36,3,TRUE,Suburban,Route B - University Express,18.7,#ff7f0e,16.7,0,Clear
10/25/2025 14:09,10/25/2025,C,Route C - Airport Connector,C-0-20251025-05,0,Outbound,C03,C-Stop 3,3,C05,10/25/2025 14:10,10/25/2025 14:09,-0.65,120,2,2,0,5,36,0.14,Low,37,1,0,0,42.463559,-76.454206,Clear,10/25/2025 14:00,Off-peak,14:00:00,15:00:00,C05,Gillig Low Floor,36,2,FALSE,Urban,Route C - Airport Connector,25.4,#2ca02c,16.7,0,Clear
10/25/2025 14:10,10/25/2025,C,Route C - Airport Connector,C-1-20251025-05,1,Inbound,C08,C-Stop 8,3,C04,10/25/2025 14:10,10/25/2025 14:10,-0.53,120,3,2,2,1,40,0.03,Low,24,1,0,0,42.474157,-76.438589,Clear,10/25/2025 14:00,Off-peak,14:00:00,15:00:00,C04,Gillig Low Floor,40,2,TRUE,Suburban,Route C - Airport Connector,25.4,#2ca02c,16.7,0,Clear
10/25/2025 14:11,10/25/2025,B,Route B - University Express,B-0-20251025-05,0,Outbound,B03,B-Stop 3,3,B03,10/25/2025 14:10,10/25/2025 14:11,0.86,120,6,4,0,4,42,0.1,Low,18,1,0,0,42.453636,-76.474156,Clear,10/25/2025 14:00,Off-peak,14:00:00,15:00:00,B03,Proterra ZX5,42,2,TRUE,Urban,Route B - University Express,18.7,#ff7f0e,16.7,0,Clear
10/25/2025 14:14,10/25/2025,A,Route A - Downtown Loop,A-1-20251025-05,1,Inbound,A07,A-Stop 7,4,A02,10/25/2025 14:15,10/25/2025 14:14,-0.88,120,0,0,2,0,40,0,Low,15,1,0,0,42.452232,-76.482555,Clear,10/25/2025 14:00,Off-peak,14:00:00,15:00:00,A02,Proterra ZX5,40,2,TRUE,Suburban,Route A - Downtown Loop,12.3,#1f77b4,16.7,0,Clear
10/25/2025 14:15,10/25/2025,A,Route A - Downtown Loop,A-0-20251025-05,0,Outbound,A04,A-Stop 4,4,A04,10/25/2025 14:14,10/25/2025 14:15,0.97,120,1,1,0,1,36,0.03,Low,43,1,0,0,42.446444,-76.490562,Clear,10/25/2025 14:00,Off-peak,14:00:00,15:00:00,A04,Proterra ZX5,36,2,TRUE,Urban,Route A - Downtown Loop,12.3,#1f77b4,16.7,0,Clear
10/25/2025 14:15,10/25/2025,B,Route B - University Express,B-0-20251025-05,0,Outbound,B04,B-Stop 4,4,B03,10/25/2025 14:15,10/25/2025 14:15,-0.14,120,7,4,1,7,42,0.17,Low,36,1,0,0,42.455952,-76.470977,Clear,10/25/2025 14:00,Off-peak,14:00:00,15:00:00,B03,Proterra ZX5,42,2,TRUE,Urban,Route B - University Express,18.7,#ff7f0e,16.7,0,Clear
10/25/2025 14:15,10/25/2025,C,Route C - Airport Connector,C-0-20251025-05,0,Outbound,C04,C-Stop 4,4,C05,10/25/2025 14:15,10/25/2025 14:15,0.5,120,0,0,3,2,36,0.06,Low,30,1,0,0,42.465584,-76.450642,Clear,10/25/2025 14:00,Off-peak,14:00:00,15:00:00,C05,Gillig Low Floor,36,2,FALSE,Urban,Route C - Airport Connector,25.4,#2ca02c,16.7,0,Clear
10/25/2025 14:15,10/25/2025,B,Route B - University Express,B-1-20251025-05,1,Inbound,B07,B-Stop 7,4,B04,10/25/2025 14:15,10/25/2025 14:15,0.76,120,3,0,2,0,36,0,Low,29,1,0,0,42.461445,-76.462267,Clear,10/25/2025 14:00,Off-peak,14:00:00,15:00:00,B04,Proterra ZX5,36,3,TRUE,Suburban,Route B - University Express,18.7,#ff7f0e,16.7,0,Clear
10/25/2025 14:16,10/25/2025,C,Route C - Airport Connector,C-1-20251025-05,1,Inbound,C07,C-Stop 7,4,C04,10/25/2025 14:15,10/25/2025 14:16,1.08,120,2,2,2,1,40,0.03,Low,28,1,0,0,42.471515,-76.441652,Clear,10/25/2025 14:00,Off-peak,14:00:00,15:00:00,C04,Gillig Low Floor,40,2,TRUE,Suburban,Route C - Airport Connector,25.4,#2ca02c,16.7,0,Clear
10/25/2025 14:19,10/25/2025,A,Route A - Downtown Loop,A-0-20251025-05,0,Outbound,A05,A-Stop 5,5,A04,10/25/2025 14:18,10/25/2025 14:19,0.8,120,6,1,0,2,36,0.06,Low,24,1,0,0,42.447414,-76.487845,Clear,10/25/2025 14:00,Off-peak,14:00:00,15:00:00,A04,Proterra ZX5,36,2,TRUE,Urban,Route A - Downtown Loop,12.3,#1f77b4,16.7,0,Clear
10/25/2025 14:19,10/25/2025,B,Route B - University Express,B-0-20251025-05,0,Outbound,B05,B-Stop 5,5,B03,10/25/2025 14:19,10/25/2025 14:19,0.07,120,1,1,2,6,42,0.14,Low,25,1,0,0,42.457925,-76.46833,Clear,10/25/2025 14:00,Off-peak,14:00:00,15:00:00,B03,Proterra ZX5,42,2,TRUE,Urban,Route B - University Express,18.7,#ff7f0e,16.7,0,Clear
10/25/2025 14:19,10/25/2025,C,Route C - Airport Connector,C-1-20251025-05,1,Inbound,C06,C-Stop 6,5,C04,10/25/2025 14:20,10/25/2025 14:19,-0.18,120,1,1,0,2,40,0.05,Low,35,1,0,0,42.470394,-76.445025,Clear,10/25/2025 14:00,Off-peak,14:00:00,15:00:00,C04,Gillig Low Floor,40,2,TRUE,Urban,Route C - Airport Connector,25.4,#2ca02c,16.7,0,Clear
10/25/2025 14:20,10/25/2025,B,Route B - University Express,B-1-20251025-05,1,Inbound,B06,B-Stop 6,5,B04,10/25/2025 14:19,10/25/2025 14:20,0.07,120,1,1,3,0,36,0,Low,22,1,0,0,42.460013,-76.464606,Clear,10/25/2025 14:00,Off-peak,14:00:00,15:00:00,B04,Proterra ZX5,36,3,TRUE,Urban,Route B - University Express,18.7,#ff7f0e,16.7,0,Clear
10/25/2025 14:20,10/25/2025,A,Route A - Downtown Loop,A-1-20251025-05,1,Inbound,A06,A-Stop 6,5,A02,10/25/2025 14:20,10/25/2025 14:20,-0.18,120,4,3,1,2,40,0.05,Low,25,1,0,0,42.449731,-76.484809,Clear,10/25/2025 14:00,Off-peak,14:00:00,15:00:00,A02,Proterra ZX5,40,2,TRUE,Urban,Route A - Downtown Loop,12.3,#1f77b4,16.7,0,Clear
10/25/2025 14:21,10/25/2025,C,Route C - Airport Connector,C-0-20251025-05,0,Outbound,C05,C-Stop 5,5,C05,10/25/2025 14:20,10/25/2025 14:21,0.56,120,0,0,1,1,36,0.03,Low,21,1,0,0,42.468409,-76.448913,Clear,10/25/2025 14:00,Off-peak,14:00:00,15:00:00,C05,Gillig Low Floor,36,2,FALSE,Urban,Route C - Airport Connector,25.4,#2ca02c,16.7,0,Clear
10/25/2025 14:24,10/25/2025,A,Route A - Downtown Loop,A-0-20251025-05,0,Outbound,A06,A-Stop 6,6,A04,10/25/2025 14:24,10/25/2025 14:24,0.18,120,2,2,2,2,36,0.06,Low,15,1,0,0,42.449879,-76.484653,Clear,10/25/2025 14:00,Off-peak,14:00:00,15:00:00,A04,Proterra ZX5,36,2,TRUE,Urban,Route A - Downtown Loop,12.3,#1f77b4,16.7,0,Clear
10/25/2025 14:24,10/25/2025,B,Route B - University Express,B-0-20251025-05,0,Outbound,B06,B-Stop 6,6,B03,10/25/2025 14:24,10/25/2025 14:24,-0.06,120,3,3,0,9,42,0.21,Low,23,1,0,0,42.459796,-76.464547,Clear,10/25/2025 14:00,Off-peak,14:00:00,15:00:00,B03,Proterra ZX5,42,2,TRUE,Urban,Route B - University Express,18.7,#ff7f0e,16.7,0,Clear
10/25/2025 14:25,10/25/2025,A,Route A - Downtown Loop,A-1-20251025-05,1,Inbound,A05,A-Stop 5,6,A02,10/25/2025 14:25,10/25/2025 14:25,-0.35,120,1,1,2,1,40,0.03,Low,16,1,0,0,42.448229,-76.487775,Clear,10/25/2025 14:00,Off-peak,14:00:00,15:00:00,A02,Proterra ZX5,40,2,TRUE,Urban,Route A - Downtown Loop,12.3,#1f77b4,16.7,0,Clear
10/25/2025 14:25,10/25/2025,C,Route C - Airport Connector,C-1-20251025-05,1,Inbound,C05,C-Stop 5,6,C04,10/25/2025 14:25,10/25/2025 14:25,0.08,120,4,4,1,5,40,0.12,Low,18,1,0,0,42.468413,-76.448886,Clear,10/25/2025 14:00,Off-peak,14:00:00,15:00:00,C04,Gillig Low Floor,40,2,TRUE,Urban,Route C - Airport Connector,25.4,#2ca02c,16.7,0,Clear
10/25/2025 14:25,10/25/2025,C,Route C - Airport Connector,C-0-20251025-05,0,Outbound,C06,C-Stop 6,6,C05,10/25/2025 14:25,10/25/2025 14:25,-0.58,120,1,0,1,0,36,0,Low,34,1,0,0,42.47015,-76.445355,Clear,10/25/2025 14:00,Off-peak,14:00:00,15:00:00,C05,Gillig Low Floor,36,2,FALSE,Urban,Route C - Airport Connector,25.4,#2ca02c,16.7,0,Clear
10/25/2025 14:25,10/25/2025,B,Route B - University Express,B-1-20251025-05,1,Inbound,B05,B-Stop 5,6,B04,10/25/2025 14:25,10/25/2025 14:25,0.2,120,3,2,2,0,36,0,Low,15,1,0,0,42.457536,-76.468004,Clear,10/25/2025 14:00,Off-peak,14:00:00,15:00:00,B04,Proterra ZX5,36,3,TRUE,Urban,Route B - University Express,18.7,#ff7f0e,16.7,0,Clear
10/25/2025 14:28,10/25/2025,A,Route A - Downtown Loop,A-0-20251025-05,0,Outbound,A07,A-Stop 7,7,A04,10/25/2025 14:28,10/25/2025 14:28,0.15,120,6,3,1,4,36,0.11,Low,26,1,0,0,42.452072,-76.482724,Clear,10/25/2025 14:00,Off-peak,14:00:00,15:00:00,A04,Proterra ZX5,36,2,TRUE,Suburban,Route A - Downtown Loop,12.3,#1f77b4,16.7,0,Clear
10/25/2025 14:29,10/25/2025,B,Route B - University Express,B-1-20251025-05,1,Inbound,B04,B-Stop 4,7,B04,10/25/2025 14:29,10/25/2025 14:29,-0.12,120,2,0,1,0,36,0,Low,26,1,0,0,42.455857,-76.471079,Clear,10/25/2025 14:00,Off-peak,14:00:00,15:00:00,B04,Proterra ZX5,36,3,TRUE,Urban,Route B - University Express,18.7,#ff7f0e,16.7,0,Clear
10/25/2025 14:29,10/25/2025,C,Route C - Airport Connector,C-1-20251025-05,1,Inbound,C04,C-Stop 4,7,C04,10/25/2025 14:29,10/25/2025 14:29,0.05,120,0,0,2,3,40,0.07,Low,21,1,0,0,42.466118,-76.450393,Clear,10/25/2025 14:00,Off-peak,14:00:00,15:00:00,C04,Gillig Low Floor,40,2,TRUE,Urban,Route C - Airport Connector,25.4,#2ca02c,16.7,0,Clear
10/25/2025 14:29,10/25/2025,B,Route B - University Express,B-0-20251025-05,0,Outbound,B07,B-Stop 7,7,B03,10/25/2025 14:30,10/25/2025 14:29,-0.23,120,1,0,3,6,42,0.14,Low,22,1,0,0,42.462088,-76.461922,Clear,10/25/2025 14:00,Off-peak,14:00:00,15:00:00,B03,Proterra ZX5,42,2,TRUE,Suburban,Route B - University Express,18.7,#ff7f0e,16.7,0,Clear
10/25/2025 14:30,10/25/2025,A,Route A - Downtown Loop,A-1-20251025-05,1,Inbound,A04,A-Stop 4,7,A02,10/25/2025 14:30,10/25/2025 14:30,0.14,120,3,1,3,0,40,0,Low,24,1,0,0,42.446627,-76.490857,Clear,10/25/2025 14:00,Off-peak,14:00:00,15:00:00,A02,Proterra ZX5,40,2,TRUE,Urban,Route A - Downtown Loop,12.3,#1f77b4,16.7,0,Clear
10/25/2025 14:32,10/25/2025,C,Route C - Airport Connector,C-0-20251025-05,0,Outbound,C07,C-Stop 7,7,C05,10/25/2025 14:31,10/25/2025 14:32,0.94,120,3,3,2,1,36,0.03,Low,29,1,0,0,42.471636,-76.441691,Clear,10/25/2025 14:00,Off-peak,14:00:00,15:00:00,C05,Gillig Low Floor,36,2,FALSE,Suburban,Route C - Airport Connector,25.4,#2ca02c,16.7,0,Clear
10/25/2025 14:33,10/25/2025,A,Route A - Downtown Loop,A-0-20251025-05,0,Outbound,A08,A-Stop 8,8,A04,10/25/2025 14:33,10/25/2025 14:33,0.03,120,3,0,0,4,36,0.11,Low,15,1,0,0,42.453826,-76.479152,Clear,10/25/2025 14:00,Off-peak,14:00:00,15:00:00,A04,Proterra ZX5,36,2,TRUE,Suburban,Route A - Downtown Loop,12.3,#1f77b4,16.7,0,Clear
10/25/2025 14:33,10/25/2025,B,Route B - University Express,B-1-20251025-05,1,Inbound,B03,B-Stop 3,8,B04,10/25/2025 14:34,10/25/2025 14:33,-0.24,120,0,0,2,0,36,0,Low,31,1,0,0,42.453663,-76.474217,Clear,10/25/2025 14:00,Off-peak,14:00:00,15:00:00,B04,Proterra ZX5,36,3,TRUE,Urban,Route B - University Express,18.7,#ff7f0e,16.7,0,Clear
10/25/2025 14:34,10/25/2025,C,Route C - Airport Connector,C-1-20251025-05,1,Inbound,C03,C-Stop 3,8,C04,10/25/2025 14:34,10/25/2025 14:34,-0.07,120,7,3,2,4,40,0.1,Low,33,1,0,0,42.463617,-76.454317,Clear,10/25/2025 14:00,Off-peak,14:00:00,15:00:00,C04,Gillig Low Floor,40,2,TRUE,Urban,Route C - Airport Connector,25.4,#2ca02c,16.7,0,Clear
10/25/2025 14:35,10/25/2025,A,Route A - Downtown Loop,A-1-20251025-05,1,Inbound,A03,A-Stop 3,8,A02,10/25/2025 14:35,10/25/2025 14:35,-0.28,120,5,0,1,0,40,0,Low,23,1,0,0,42.443859,-76.493926,Clear,10/25/2025 14:00,Off-peak,14:00:00,15:00:00,A02,Proterra ZX5,40,2,TRUE,Urban,Route A - Downtown Loop,12.3,#1f77b4,16.7,0,Clear
10/25/2025 14:36,10/25/2025,B,Route B - University Express,B-0-20251025-05,0,Outbound,B08,B-Stop 8,8,B03,10/25/2025 14:35,10/25/2025 14:36,0.87,120,6,3,1,8,42,0.19,Low,28,1,0,0,42.463989,-76.459522,Clear,10/25/2025 14:00,Off-peak,14:00:00,15:00:00,B03,Proterra ZX5,42,2,TRUE,Suburban,Route B - University Express,18.7,#ff7f0e,16.7,0,Clear
10/25/2025 14:36,10/25/2025,C,Route C - Airport Connector,C-0-20251025-05,0,Outbound,C08,C-Stop 8,8,C05,10/25/2025 14:36,10/25/2025 14:36,0.51,120,1,1,1,1,36,0.03,Low,15,1,0,0,42.474509,-76.439021,Clear,10/25/2025 14:00,Off-peak,14:00:00,15:00:00,C05,Gillig Low Floor,36,2,FALSE,Suburban,Route C - Airport Connector,25.4,#2ca02c,16.7,0,Clear
10/25/2025 14:39,10/25/2025,A,Route A - Downtown Loop,A-0-20251025-05,0,Outbound,A09,A-Stop 9,9,A04,10/25/2025 14:38,10/25/2025 14:39,0.65,120,2,2,1,5,36,0.14,Low,29,1,0,0,42.455545,-76.475805,Clear,10/25/2025 14:00,Off-peak,14:00:00,15:00:00,A04,Proterra ZX5,36,2,TRUE,Suburban,Route A - Downtown Loop,12.3,#1f77b4,16.7,0,Clear
10/25/2025 14:39,10/25/2025,B,Route B - University Express,B-1-20251025-05,1,Inbound,B02,B-Stop 2,9,B04,10/25/2025 14:39,10/25/2025 14:39,0.7,120,3,2,3,0,36,0,Low,20,1,1,0,42.451976,-76.477101,Clear,10/25/2025 14:00,Off-peak,14:00:00,15:00:00,B04,Proterra ZX5,36,3,TRUE,Urban,Route B - University Express,18.7,#ff7f0e,16.7,0,Clear
10/25/2025 14:40,10/25/2025,C,Route C - Airport Connector,C-1-20251025-05,1,Inbound,C02,C-Stop 2,9,C04,10/25/2025 14:39,10/25/2025 14:40,0.82,120,0,0,3,1,40,0.03,Low,21,1,0,0,42.462275,-76.456807,Clear,10/25/2025 14:00,Off-peak,14:00:00,15:00:00,C04,Gillig Low Floor,40,2,TRUE,Urban,Route C - Airport Connector,25.4,#2ca02c,16.7,0,Clear
10/25/2025 14:41,10/25/2025,B,Route B - University Express,B-0-20251025-05,0,Outbound,B09,B-Stop 9,9,B03,10/25/2025 14:39,10/25/2025 14:41,1.54,120,1,0,0,8,42,0.19,Low,15,0,0,0,42.466091,-76.456371,Clear,10/25/2025 14:00,Off-peak,14:00:00,15:00:00,B03,Proterra ZX5,42,2,TRUE,Suburban,Route B - University Express,18.7,#ff7f0e,16.7,0,Clear
10/25/2025 14:41,10/25/2025,A,Route A - Downtown Loop,A-1-20251025-05,1,Inbound,A02,A-Stop 2,9,A02,10/25/2025 14:40,10/25/2025 14:41,1.04,120,1,1,1,0,40,0,Low,27,1,0,0,42.442191,-76.496574,Clear,10/25/2025 14:00,Off-peak,14:00:00,15:00:00,A02,Proterra ZX5,40,2,TRUE,Urban,Route A - Downtown Loop,12.3,#1f77b4,16.7,0,Clear
10/25/2025 14:41,10/25/2025,C,Route C - Airport Connector,C-0-20251025-05,0,Outbound,C09,C-Stop 9,9,C05,10/25/2025 14:41,10/25/2025 14:41,0.4,120,3,1,2,0,36,0,Low,27,1,0,0,42.475895,-76.435746,Clear,10/25/2025 14:00,Off-peak,14:00:00,15:00:00,C05,Gillig Low Floor,36,2,FALSE,Suburban,Route C - Airport Connector,25.4,#2ca02c,16.7,0,Clear
10/25/2025 14:43,10/25/2025,B,Route B - University Express,B-1-20251025-05,1,Inbound,B01,B-Stop 1,10,B04,10/25/2025 14:44,10/25/2025 14:43,-0.56,120,1,0,2,0,36,0,Low,19,1,0,0,42.450494,-76.480215,Clear,10/25/2025 14:00,Off-peak,14:00:00,15:00:00,B04,Proterra ZX5,36,3,TRUE,Urban,Route B - University Express,18.7,#ff7f0e,16.7,0,Clear
10/25/2025 14:43,10/25/2025,A,Route A - Downtown Loop,A-0-20251025-05,0,Outbound,A10,A-Stop 10,10,A04,10/25/2025 14:43,10/25/2025 14:43,0.17,120,1,1,2,4,36,0.11,Low,28,1,1,0,42.457702,-76.473366,Clear,10/25/2025 14:00,Off-peak,14:00:00,15:00:00,A04,Proterra ZX5,36,2,TRUE,Suburban,Route A - Downtown Loop,12.3,#1f77b4,16.7,0,Clear
10/25/2025 14:44,10/25/2025,C,Route C - Airport Connector,C-1-20251025-05,1,Inbound,C01,C-Stop 1,10,C04,10/25/2025 14:44,10/25/2025 14:44,-0.14,120,2,2,3,0,40,0,Low,25,1,0,0,42.4601,-76.459925,Clear,10/25/2025 14:00,Off-peak,14:00:00,15:00:00,C04,Gillig Low Floor,40,2,TRUE,Urban,Route C - Airport Connector,25.4,#2ca02c,16.7,0,Clear
10/25/2025 14:44,10/25/2025,B,Route B - University Express,B-0-20251025-05,0,Outbound,B10,B-Stop 10,10,B03,10/25/2025 14:45,10/25/2025 14:44,-0.63,120,1,1,1,8,42,0.19,Low,32,1,0,0,42.467572,-76.453134,Clear,10/25/2025 14:00,Off-peak,14:00:00,15:00:00,B03,Proterra ZX5,42,2,TRUE,Suburban,Route B - University Express,18.7,#ff7f0e,16.7,0,Clear
10/25/2025 14:45,10/25/2025,A,Route A - Downtown Loop,A-1-20251025-05,1,Inbound,A01,A-Stop 1,10,A02,10/25/2025 14:45,10/25/2025 14:45,-0.19,120,4,0,2,0,40,0,Low,17,1,0,0,42.440017,-76.500058,Clear,10/25/2025 14:00,Off-peak,14:00:00,15:00:00,A02,Proterra ZX5,40,2,TRUE,Urban,Route A - Downtown Loop,12.3,#1f77b4,16.7,0,Clear
10/25/2025 14:46,10/25/2025,C,Route C - Airport Connector,C-0-20251025-05,0,Outbound,C10,C-Stop 10,10,C05,10/25/2025 14:46,10/25/2025 14:46,0.24,120,1,1,2,0,36,0,Low,23,1,0,0,42.478208,-76.432766,Clear,10/25/2025 14:00,Off-peak,14:00:00,15:00:00,C05,Gillig Low Floor,36,2,FALSE,Suburban,Route C - Airport Connector,25.4,#2ca02c,16.7,0,Clear
10/25/2025 15:59,10/25/2025,B,Route B - University Express,B-1-20251025-06,1,Inbound,B10,B-Stop 10,1,B04,10/25/2025 16:00,10/25/2025 15:59,-1,120,3,2,0,2,36,0.06,Low,20,1,0,0,42.467446,-76.452861,Cloudy,10/25/2025 15:00,Peak,16:00:00,17:00:00,B04,Proterra ZX5,36,3,TRUE,Suburban,Route B - University Express,18.7,#ff7f0e,14,0.08,Clear
10/25/2025 16:00,10/25/2025,B,Route B - University Express,B-0-20251025-06,0,Outbound,B01,B-Stop 1,1,B04,10/25/2025 16:00,10/25/2025 16:00,0.02,120,1,1,0,1,36,0.03,Low,28,1,0,0,42.450122,-76.480071,Cloudy,10/25/2025 16:00,Peak,16:00:00,17:00:00,B04,Proterra ZX5,36,3,TRUE,Urban,Route B - University Express,18.7,#ff7f0e,15.5,0.22,Cloudy
10/25/2025 16:00,10/25/2025,A,Route A - Downtown Loop,A-0-20251025-06,0,Outbound,A01,A-Stop 1,1,A03,10/25/2025 16:00,10/25/2025 16:00,0.18,120,3,1,0,1,50,0.02,Low,41,1,0,0,42.440211,-76.499912,Cloudy,10/25/2025 16:00,Peak,16:00:00,17:00:00,A03,Gillig Low Floor,50,2,TRUE,Urban,Route A - Downtown Loop,12.3,#1f77b4,15.5,0.22,Cloudy
10/25/2025 16:00,10/25/2025,C,Route C - Airport Connector,C-1-20251025-06,1,Inbound,C10,C-Stop 10,1,C05,10/25/2025 16:00,10/25/2025 16:00,0.35,120,0,0,1,0,36,0,Low,15,1,0,0,42.478265,-76.432432,Cloudy,10/25/2025 16:00,Peak,16:00:00,17:00:00,C05,Gillig Low Floor,36,2,FALSE,Suburban,Route C - Airport Connector,25.4,#2ca02c,15.5,0.22,Cloudy
10/25/2025 16:00,10/25/2025,C,Route C - Airport Connector,C-0-20251025-06,0,Outbound,C01,C-Stop 1,1,C03,10/25/2025 16:00,10/25/2025 16:00,0.6,120,4,3,0,3,50,0.06,Low,18,1,0,0,42.460099,-76.45983,Cloudy,10/25/2025 16:00,Peak,16:00:00,17:00:00,C03,Proterra ZX5,50,2,TRUE,Urban,Route C - Airport Connector,25.4,#2ca02c,15.5,0.22,Cloudy
10/25/2025 16:01,10/25/2025,A,Route A - Downtown Loop,A-1-20251025-06,1,Inbound,A10,A-Stop 10,1,A02,10/25/2025 16:00,10/25/2025 16:01,1.29,120,3,3,0,3,40,0.07,Low,22,1,0,0,42.458035,-76.473336,Cloudy,10/25/2025 16:00,Peak,16:00:00,17:00:00,A02,Proterra ZX5,40,2,TRUE,Suburban,Route A - Downtown Loop,12.3,#1f77b4,15.5,0.22,Cloudy
10/25/2025 16:04,10/25/2025,B,Route B - University Express,B-0-20251025-06,0,Outbound,B02,B-Stop 2,2,B04,10/25/2025 16:04,10/25/2025 16:04,-0.19,120,3,1,3,0,36,0,Low,32,1,1,0,42.452257,-76.477526,Cloudy,10/25/2025 16:00,Peak,16:00:00,17:00:00,B04,Proterra ZX5,36,3,TRUE,Urban,Route B - University Express,18.7,#ff7f0e,15.5,0.22,Cloudy
10/25/2025 16:05,10/25/2025,A,Route A - Downtown Loop,A-1-20251025-06,1,Inbound,A09,A-Stop 9,2,A02,10/25/2025 16:04,10/25/2025 16:05,0.48,120,2,0,2,1,40,0.03,Low,31,1,0,0,42.456064,-76.475821,Cloudy,10/25/2025 16:00,Peak,16:00:00,17:00:00,A02,Proterra ZX5,40,2,TRUE,Suburban,Route A - Downtown Loop,12.3,#1f77b4,15.5,0.22,Cloudy
10/25/2025 16:05,10/25/2025,A,Route A - Downtown Loop,A-0-20251025-06,0,Outbound,A02,A-Stop 2,2,A03,10/25/2025 16:05,10/25/2025 16:05,0.04,120,5,1,3,0,50,0,Low,22,1,0,0,42.442002,-76.49647,Cloudy,10/25/2025 16:00,Peak,16:00:00,17:00:00,A03,Gillig Low Floor,50,2,TRUE,Urban,Route A - Downtown Loop,12.3,#1f77b4,15.5,0.22,Cloudy
10/25/2025 16:05,10/25/2025,B,Route B - University Express,B-1-20251025-06,1,Inbound,B09,B-Stop 9,2,B04,10/25/2025 16:05,10/25/2025 16:05,0.21,120,3,1,0,3,36,0.08,Low,30,1,0,0,42.466244,-76.456446,Cloudy,10/25/2025 16:00,Peak,16:00:00,17:00:00,B04,Proterra ZX5,36,3,TRUE,Suburban,Route B - University Express,18.7,#ff7f0e,15.5,0.22,Cloudy
10/25/2025 16:05,10/25/2025,C,Route C - Airport Connector,C-0-20251025-06,0,Outbound,C02,C-Stop 2,2,C03,10/25/2025 16:05,10/25/2025 16:05,0,120,3,1,1,3,50,0.06,Low,20,1,0,0,42.461549,-76.45682,Cloudy,10/25/2025 16:00,Peak,16:00:00,17:00:00,C03,Proterra ZX5,50,2,TRUE,Urban,Route C - Airport Connector,25.4,#2ca02c,15.5,0.22,Cloudy
10/25/2025 16:05,10/25/2025,C,Route C - Airport Connector,C-1-20251025-06,1,Inbound,C09,C-Stop 9,2,C05,10/25/2025 16:04,10/25/2025 16:05,1.22,120,1,1,1,0,36,0,Low,23,1,0,0,42.475625,-76.435953,Cloudy,10/25/2025 16:00,Peak,16:00:00,17:00:00,C05,Gillig Low Floor,36,2,FALSE,Suburban,Route C - Airport Connector,25.4,#2ca02c,15.5,0.22,Cloudy
10/25/2025 16:09,10/25/2025,B,Route B - University Express,B-0-20251025-06,0,Outbound,B03,B-Stop 3,3,B04,10/25/2025 16:09,10/25/2025 16:09,0.25,120,2,1,0,1,36,0.03,Low,24,1,0,0,42.453756,-76.473829,Cloudy,10/25/2025 16:00,Peak,16:00:00,17:00:00,B04,Proterra ZX5,36,3,TRUE,Urban,Route B - University Express,18.7,#ff7f0e,15.5,0.22,Cloudy
10/25/2025 16:10,10/25/2025,C,Route C - Airport Connector,C-0-20251025-06,0,Outbound,C03,C-Stop 3,3,C03,10/25/2025 16:10,10/25/2025 16:10,0.04,120,0,0,3,0,50,0,Low,26,1,0,0,42.463363,-76.454334,Cloudy,10/25/2025 16:00,Peak,16:00:00,17:00:00,C03,Proterra ZX5,50,2,TRUE,Urban,Route C - Airport Connector,25.4,#2ca02c,15.5,0.22,Cloudy
10/25/2025 16:10,10/25/2025,A,Route A - Downtown Loop,A-0-20251025-06,0,Outbound,A03,A-Stop 3,3,A03,10/25/2025 16:09,10/25/2025 16:10,0.52,120,0,0,0,0,50,0,Low,26,0,0,0,42.443599,-76.494068,Cloudy,10/25/2025 16:00,Peak,16:00:00,17:00:00,A03,Gillig Low Floor,50,2,TRUE,Urban,Route A - Downtown Loop,12.3,#1f77b4,15.5,0.22,Cloudy
10/25/2025 16:10,10/25/2025,C,Route C - Airport Connector,C-1-20251025-06,1,Inbound,C08,C-Stop 8,3,C05,10/25/2025 16:10,10/25/2025 16:10,0.16,120,0,0,2,0,36,0,Low,23,1,0,0,42.474683,-76.439033,Cloudy,10/25/2025 16:00,Peak,16:00:00,17:00:00,C05,Gillig Low Floor,36,2,FALSE,Suburban,Route C - Airport Connector,25.4,#2ca02c,15.5,0.22,Cloudy
10/25/2025 16:10,10/25/2025,A,Route A - Downtown Loop,A-1-20251025-06,1,Inbound,A08,A-Stop 8,3,A02,10/25/2025 16:09,10/25/2025 16:10,0.7,120,4,4,1,4,40,0.1,Low,24,1,0,0,42.453339,-76.479061,Cloudy,10/25/2025 16:00,Peak,16:00:00,17:00:00,A02,Proterra ZX5,40,2,TRUE,Suburban,Route A - Downtown Loop,12.3,#1f77b4,15.5,0.22,Cloudy
10/25/2025 16:11,10/25/2025,B,Route B - University Express,B-1-20251025-06,1,Inbound,B08,B-Stop 8,3,B04,10/25/2025 16:10,10/25/2025 16:11,0.56,120,4,4,2,5,36,0.14,Low,25,1,0,0,42.463985,-76.459335,Cloudy,10/25/2025 16:00,Peak,16:00:00,17:00:00,B04,Proterra ZX5,36,3,TRUE,Suburban,Route B - University Express,18.7,#ff7f0e,15.5,0.22,Cloudy
10/25/2025 16:13,10/25/2025,C,Route C - Airport Connector,C-1-20251025-06,1,Inbound,C07,C-Stop 7,4,C05,10/25/2025 16:14,10/25/2025 16:13,-0.24,120,4,0,1,0,36,0,Low,30,1,0,0,42.471889,-76.441741,Cloudy,10/25/2025 16:00,Peak,16:00:00,17:00:00,C05,Gillig Low Floor,36,2,FALSE,Suburban,Route C - Airport Connector,25.4,#2ca02c,15.5,0.22,Cloudy
10/25/2025 16:14,10/25/2025,A,Route A - Downtown Loop,A-1-20251025-06,1,Inbound,A07,A-Stop 7,4,A02,10/25/2025 16:14,10/25/2025 16:14,0.67,120,4,2,2,4,40,0.1,Low,34,1,0,0,42.452247,-76.482695,Cloudy,10/25/2025 16:00,Peak,16:00:00,17:00:00,A02,Proterra ZX5,40,2,TRUE,Suburban,Route A - Downtown Loop,12.3,#1f77b4,15.5,0.22,Cloudy
10/25/2025 16:14,10/25/2025,C,Route C - Airport Connector,C-0-20251025-06,0,Outbound,C04,C-Stop 4,4,C03,10/25/2025 16:14,10/25/2025 16:14,0.17,120,3,3,0,3,50,0.06,Low,24,1,0,0,42.465799,-76.450494,Cloudy,10/25/2025 16:00,Peak,16:00:00,17:00:00,C03,Proterra ZX5,50,2,TRUE,Urban,Route C - Airport Connector,25.4,#2ca02c,15.5,0.22,Cloudy
10/25/2025 16:15,10/25/2025,B,Route B - University Express,B-0-20251025-06,0,Outbound,B04,B-Stop 4,4,B04,10/25/2025 16:14,10/25/2025 16:15,0.86,120,0,0,1,0,36,0,Low,17,1,0,0,42.455569,-76.470674,Cloudy,10/25/2025 16:00,Peak,16:00:00,17:00:00,B04,Proterra ZX5,36,3,TRUE,Urban,Route B - University Express,18.7,#ff7f0e,15.5,0.22,Cloudy
10/25/2025 16:16,10/25/2025,A,Route A - Downtown Loop,A-0-20251025-06,0,Outbound,A04,A-Stop 4,4,A03,10/25/2025 16:15,10/25/2025 16:16,0.82,120,4,1,3,0,50,0,Low,30,1,0,0,42.446516,-76.490722,Cloudy,10/25/2025 16:00,Peak,16:00:00,17:00:00,A03,Gillig Low Floor,50,2,TRUE,Urban,Route A - Downtown Loop,12.3,#1f77b4,15.5,0.22,Cloudy
10/25/2025 16:16,10/25/2025,B,Route B - University Express,B-1-20251025-06,1,Inbound,B07,B-Stop 7,4,B04,10/25/2025 16:15,10/25/2025 16:16,0.63,120,5,1,4,2,36,0.06,Low,15,1,0,0,42.46208,-76.462477,Cloudy,10/25/2025 16:00,Peak,16:00:00,17:00:00,B04,Proterra ZX5,36,3,TRUE,Suburban,Route B - University Express,18.7,#ff7f0e,15.5,0.22,Cloudy
10/25/2025 16:18,10/25/2025,A,Route A - Downtown Loop,A-1-20251025-06,1,Inbound,A06,A-Stop 6,5,A02,10/25/2025 16:18,10/25/2025 16:18,-0.33,120,4,0,3,1,40,0.03,Low,32,1,0,0,42.449685,-76.485177,Cloudy,10/25/2025 16:00,Peak,16:00:00,17:00:00,A02,Proterra ZX5,40,2,TRUE,Urban,Route A - Downtown Loop,12.3,#1f77b4,15.5,0.22,Cloudy
10/25/2025 16:19,10/25/2025,C,Route C - Airport Connector,C-1-20251025-06,1,Inbound,C06,C-Stop 6,5,C05,10/25/2025 16:19,10/25/2025 16:19,-0.06,120,2,2,0,2,36,0.06,Low,15,1,0,0,42.470011,-76.444929,Cloudy,10/25/2025 16:00,Peak,16:00:00,17:00:00,C05,Gillig Low Floor,36,2,FALSE,Urban,Route C - Airport Connector,25.4,#2ca02c,15.5,0.22,Cloudy
10/25/2025 16:19,10/25/2025,A,Route A - Downtown Loop,A-0-20251025-06,0,Outbound,A05,A-Stop 5,5,A03,10/25/2025 16:20,10/25/2025 16:19,-0.35,120,5,3,1,2,50,0.04,Low,24,1,0,0,42.44783,-76.487844,Cloudy,10/25/2025 16:00,Peak,16:00:00,17:00:00,A03,Gillig Low Floor,50,2,TRUE,Urban,Route A - Downtown Loop,12.3,#1f77b4,15.5,0.22,Cloudy
10/25/2025 16:19,10/25/2025,B,Route B - University Express,B-1-20251025-06,1,Inbound,B06,B-Stop 6,5,B04,10/25/2025 16:19,10/25/2025 16:19,0.08,120,0,0,2,0,36,0,Low,31,1,0,0,42.459518,-76.464263,Cloudy,10/25/2025 16:00,Peak,16:00:00,17:00:00,B04,Proterra ZX5,36,3,TRUE,Urban,Route B - University Express,18.7,#ff7f0e,15.5,0.22,Cloudy
10/25/2025 16:20,10/25/2025,C,Route C - Airport Connector,C-0-20251025-06,0,Outbound,C05,C-Stop 5,5,C03,10/25/2025 16:19,10/25/2025 16:20,0.55,120,3,0,3,0,50,0,Low,29,1,0,0,42.468286,-76.448276,Cloudy,10/25/2025 16:00,Peak,16:00:00,17:00:00,C03,Proterra ZX5,50,2,TRUE,Urban,Route C - Airport Connector,25.4,#2ca02c,15.5,0.22,Cloudy
10/25/2025 16:20,10/25/2025,B,Route B - University Express,B-0-20251025-06,0,Outbound,B05,B-Stop 5,5,B04,10/25/2025 16:19,10/25/2025 16:20,1.14,120,4,1,3,0,36,0,Low,27,1,0,0,42.457633,-76.467716,Cloudy,10/25/2025 16:00,Peak,16:00:00,17:00:00,B04,Proterra ZX5,36,3,TRUE,Urban,Route B - University Express,18.7,#ff7f0e,15.5,0.22,Cloudy
10/25/2025 16:24,10/25/2025,A,Route A - Downtown Loop,A-1-20251025-06,1,Inbound,A05,A-Stop 5,6,A02,10/25/2025 16:23,10/25/2025 16:24,0.73,120,6,0,1,0,40,0,Low,23,1,0,0,42.447579,-76.487934,Cloudy,10/25/2025 16:00,Peak,16:00:00,17:00:00,A02,Proterra ZX5,40,2,TRUE,Urban,Route A - Downtown Loop,12.3,#1f77b4,15.5,0.22,Cloudy
10/25/2025 16:24,10/25/2025,B,Route B - University Express,B-0-20251025-06,0,Outbound,B06,B-Stop 6,6,B04,10/25/2025 16:24,10/25/2025 16:24,0.21,120,1,1,2,0,36,0,Low,28,1,0,0,42.459718,-76.464277,Cloudy,10/25/2025 16:00,Peak,16:00:00,17:00:00,B04,Proterra ZX5,36,3,TRUE,Urban,Route B - University Express,18.7,#ff7f0e,15.5,0.22,Cloudy
10/25/2025 16:25,10/25/2025,C,Route C - Airport Connector,C-1-20251025-06,1,Inbound,C05,C-Stop 5,6,C05,10/25/2025 16:24,10/25/2025 16:25,0.71,120,0,0,2,0,36,0,Low,16,1,0,1,42.468275,-76.448551,Cloudy,10/25/2025 16:00,Peak,16:00:00,17:00:00,C05,Gillig Low Floor,36,2,FALSE,Urban,Route C - Airport Connector,25.4,#2ca02c,15.5,0.22,Cloudy
10/25/2025 16:25,10/25/2025,B,Route B - University Express,B-1-20251025-06,1,Inbound,B05,B-Stop 5,6,B04,10/25/2025 16:24,10/25/2025 16:25,0.82,120,2,0,0,0,36,0,Low,15,1,0,0,42.457915,-76.467792,Cloudy,10/25/2025 16:00,Peak,16:00:00,17:00:00,B04,Proterra ZX5,36,3,TRUE,Urban,Route B - University Express,18.7,#ff7f0e,15.5,0.22,Cloudy
10/25/2025 16:25,10/25/2025,A,Route A - Downtown Loop,A-0-20251025-06,0,Outbound,A06,A-Stop 6,6,A03,10/25/2025 16:25,10/25/2025 16:25,0.77,120,1,0,3,0,50,0,Low,22,1,0,0,42.449608,-76.485237,Cloudy,10/25/2025 16:00,Peak,16:00:00,17:00:00,A03,Gillig Low Floor,50,2,TRUE,Urban,Route A - Downtown Loop,12.3,#1f77b4,15.5,0.22,Cloudy
10/25/2025 16:26,10/25/2025,C,Route C - Airport Connector,C-0-20251025-06,0,Outbound,C06,C-Stop 6,6,C03,10/25/2025 16:25,10/25/2025 16:26,1.09,120,3,1,1,0,50,0,Low,24,1,0,0,42.469993,-76.444789,Cloudy,10/25/2025 16:00,Peak,16:00:00,17:00:00,C03,Proterra ZX5,50,2,TRUE,Urban,Route C - Airport Connector,25.4,#2ca02c,15.5,0.22,Cloudy
10/25/2025 16:28,10/25/2025,A,Route A - Downtown Loop,A-1-20251025-06,1,Inbound,A04,A-Stop 4,7,A02,10/25/2025 16:28,10/25/2025 16:28,0.03,120,0,0,2,0,40,0,Low,25,1,1,0,42.446254,-76.490718,Cloudy,10/25/2025 16:00,Peak,16:00:00,17:00:00,A02,Proterra ZX5,40,2,TRUE,Urban,Route A - Downtown Loop,12.3,#1f77b4,15.5,0.22,Cloudy
10/25/2025 16:29,10/25/2025,B,Route B - University Express,B-0-20251025-06,0,Outbound,B07,B-Stop 7,7,B04,10/25/2025 16:29,10/25/2025 16:29,-0.2,120,0,0,0,0,36,0,Low,15,0,1,0,42.461907,-76.462074,Cloudy,10/25/2025 16:00,Peak,16:00:00,17:00:00,B04,Proterra ZX5,36,3,TRUE,Suburban,Route B - University Express,18.7,#ff7f0e,15.5,0.22,Cloudy
10/25/2025 16:29,10/25/2025,C,Route C - Airport Connector,C-1-20251025-06,1,Inbound,C04,C-Stop 4,7,C05,10/25/2025 16:30,10/25/2025 16:29,-1,120,5,1,0,1,36,0.03,Low,21,1,0,0,42.465917,-76.450475,Cloudy,10/25/2025 16:00,Peak,16:00:00,17:00:00,C05,Gillig Low Floor,36,2,FALSE,Urban,Route C - Airport Connector,25.4,#2ca02c,15.5,0.22,Cloudy
10/25/2025 16:30,10/25/2025,B,Route B - University Express,B-1-20251025-06,1,Inbound,B04,B-Stop 4,7,B04,10/25/2025 16:29,10/25/2025 16:30,0.58,120,0,0,2,0,36,0,Low,16,1,0,0,42.455614,-76.470744,Cloudy,10/25/2025 16:00,Peak,16:00:00,17:00:00,B04,Proterra ZX5,36,3,TRUE,Urban,Route B - University Express,18.7,#ff7f0e,15.5,0.22,Cloudy
10/25/2025 16:30,10/25/2025,C,Route C - Airport Connector,C-0-20251025-06,0,Outbound,C07,C-Stop 7,7,C03,10/25/2025 16:30,10/25/2025 16:30,0.26,120,3,3,0,3,50,0.06,Low,19,1,0,0,42.471521,-76.441863,Cloudy,10/25/2025 16:00,Peak,16:00:00,17:00:00,C03,Proterra ZX5,50,2,TRUE,Suburban,Route C - Airport Connector,25.4,#2ca02c,15.5,0.22,Cloudy
10/25/2025 16:31,10/25/2025,A,Route A - Downtown Loop,A-0-20251025-06,0,Outbound,A07,A-Stop 7,7,A03,10/25/2025 16:29,10/25/2025 16:31,1.13,120,4,3,2,1,50,0.02,Low,30,1,0,0,42.451935,-76.482614,Cloudy,10/25/2025 16:00,Peak,16:00:00,17:00:00,A03,Gillig Low Floor,50,2,TRUE,Suburban,Route A - Downtown Loop,12.3,#1f77b4,15.5,0.22,Cloudy
10/25/2025 16:32,10/25/2025,A,Route A - Downtown Loop,A-1-20251025-06,1,Inbound,A03,A-Stop 3,8,A02,10/25/2025 16:33,10/25/2025 16:32,-0.93,120,0,0,3,0,40,0,Low,27,1,0,0,42.44415,-76.494101,Cloudy,10/25/2025 16:00,Peak,16:00:00,17:00:00,A02,Proterra ZX5,40,2,TRUE,Urban,Route A - Downtown Loop,12.3,#1f77b4,15.5,0.22,Cloudy
10/25/2025 16:34,10/25/2025,B,Route B - University Express,B-1-20251025-06,1,Inbound,B03,B-Stop 3,8,B04,10/25/2025 16:33,10/25/2025 16:34,1,120,3,3,1,2,36,0.06,Low,15,1,0,0,42.453943,-76.473983,Cloudy,10/25/2025 16:00,Peak,16:00:00,17:00:00,B04,Proterra ZX5,36,3,TRUE,Urban,Route B - University Express,18.7,#ff7f0e,15.5,0.22,Cloudy
10/25/2025 16:34,10/25/2025,A,Route A - Downtown Loop,A-0-20251025-06,0,Outbound,A08,A-Stop 8,8,A03,10/25/2025 16:34,10/25/2025 16:34,0.07,120,4,2,3,0,50,0,Low,18,1,0,0,42.453583,-76.479418,Cloudy,10/25/2025 16:00,Peak,16:00:00,17:00:00,A03,Gillig Low Floor,50,2,TRUE,Suburban,Route A - Downtown Loop,12.3,#1f77b4,15.5,0.22,Cloudy
10/25/2025 16:35,10/25/2025,C,Route C - Airport Connector,C-0-20251025-06,0,Outbound,C08,C-Stop 8,8,C03,10/25/2025 16:35,10/25/2025 16:35,-0.08,120,1,1,1,3,50,0.06,Low,26,1,0,0,42.474532,-76.438585,Cloudy,10/25/2025 16:00,Peak,16:00:00,17:00:00,C03,Proterra ZX5,50,2,TRUE,Suburban,Route C - Airport Connector,25.4,#2ca02c,15.5,0.22,Cloudy
10/25/2025 16:35,10/25/2025,B,Route B - University Express,B-0-20251025-06,0,Outbound,B08,B-Stop 8,8,B04,10/25/2025 16:34,10/25/2025 16:35,0.86,120,1,1,4,0,36,0,Low,18,1,0,0,42.464305,-76.458816,Cloudy,10/25/2025 16:00,Peak,16:00:00,17:00:00,B04,Proterra ZX5,36,3,TRUE,Suburban,Route B - University Express,18.7,#ff7f0e,15.5,0.22,Cloudy
10/25/2025 16:37,10/25/2025,C,Route C - Airport Connector,C-1-20251025-06,1,Inbound,C03,C-Stop 3,8,C05,10/25/2025 16:36,10/25/2025 16:37,1.05,120,1,1,2,0,36,0,Low,21,1,0,0,42.463514,-76.454358,Cloudy,10/25/2025 16:00,Peak,16:00:00,17:00:00,C05,Gillig Low Floor,36,2,FALSE,Urban,Route C - Airport Connector,25.4,#2ca02c,15.5,0.22,Cloudy
10/25/2025 16:39,10/25/2025,B,Route B - University Express,B-1-20251025-06,1,Inbound,B02,B-Stop 2,9,B04,10/25/2025 16:38,10/25/2025 16:39,0.85,120,4,4,2,4,36,0.11,Low,20,1,0,0,42.451983,-76.477344,Cloudy,10/25/2025 16:00,Peak,16:00:00,17:00:00,B04,Proterra ZX5,36,3,TRUE,Urban,Route B - University Express,18.7,#ff7f0e,15.5,0.22,Cloudy
10/25/2025 16:39,10/25/2025,A,Route A - Downtown Loop,A-1-20251025-06,1,Inbound,A02,A-Stop 2,9,A02,10/25/2025 16:38,10/25/2025 16:39,0.85,120,6,3,0,3,40,0.07,Low,24,1,0,0,42.44225,-76.496595,Cloudy,10/25/2025 16:00,Peak,16:00:00,17:00:00,A02,Proterra ZX5,40,2,TRUE,Urban,Route A - Downtown Loop,12.3,#1f77b4,15.5,0.22,Cloudy
10/25/2025 16:40,10/25/2025,B,Route B - University Express,B-0-20251025-06,0,Outbound,B09,B-Stop 9,9,B04,10/25/2025 16:39,10/25/2025 16:40,0.24,120,4,2,0,2,36,0.06,Low,31,1,0,0,42.465662,-76.456671,Cloudy,10/25/2025 16:00,Peak,16:00:00,17:00:00,B04,Proterra ZX5,36,3,TRUE,Suburban,Route B - University Express,18.7,#ff7f0e,15.5,0.22,Cloudy
10/25/2025 16:40,10/25/2025,A,Route A - Downtown Loop,A-0-20251025-06,0,Outbound,A09,A-Stop 9,9,A03,10/25/2025 16:39,10/25/2025 16:40,0.64,120,2,2,1,1,50,0.02,Low,15,1,0,0,42.455808,-76.475557,Cloudy,10/25/2025 16:00,Peak,16:00:00,17:00:00,A03,Gillig Low Floor,50,2,TRUE,Suburban,Route A - Downtown Loop,12.3,#1f77b4,15.5,0.22,Cloudy
10/25/2025 16:41,10/25/2025,C,Route C - Airport Connector,C-1-20251025-06,1,Inbound,C02,C-Stop 2,9,C05,10/25/2025 16:41,10/25/2025 16:41,-0.24,120,0,0,2,0,36,0,Low,23,1,0,0,42.462239,-76.457142,Cloudy,10/25/2025 16:00,Peak,16:00:00,17:00:00,C05,Gillig Low Floor,36,2,FALSE,Urban,Route C - Airport Connector,25.4,#2ca02c,15.5,0.22,Cloudy
10/25/2025 16:41,10/25/2025,C,Route C - Airport Connector,C-0-20251025-06,0,Outbound,C09,C-Stop 9,9,C03,10/25/2025 16:40,10/25/2025 16:41,0.85,120,3,1,1,3,50,0.06,Low,22,1,0,0,42.475643,-76.435946,Cloudy,10/25/2025 16:00,Peak,16:00:00,17:00:00,C03,Proterra ZX5,50,2,TRUE,Suburban,Route C - Airport Connector,25.4,#2ca02c,15.5,0.22,Cloudy
10/25/2025 16:43,10/25/2025,B,Route B - University Express,B-1-20251025-06,1,Inbound,B01,B-Stop 1,10,B04,10/25/2025 16:43,10/25/2025 16:43,-0.68,120,3,3,1,6,36,0.17,Low,30,1,0,0,42.450538,-76.479877,Cloudy,10/25/2025 16:00,Peak,16:00:00,17:00:00,B04,Proterra ZX5,36,3,TRUE,Urban,Route B - University Express,18.7,#ff7f0e,15.5,0.22,Cloudy
10/25/2025 16:44,10/25/2025,A,Route A - Downtown Loop,A-1-20251025-06,1,Inbound,A01,A-Stop 1,10,A02,10/25/2025 16:44,10/25/2025 16:44,0.69,120,5,4,1,6,40,0.15,Low,16,1,0,0,42.440221,-76.499665,Cloudy,10/25/2025 16:00,Peak,16:00:00,17:00:00,A02,Proterra ZX5,40,2,TRUE,Urban,Route A - Downtown Loop,12.3,#1f77b4,15.5,0.22,Cloudy
10/25/2025 16:45,10/25/2025,A,Route A - Downtown Loop,A-0-20251025-06,0,Outbound,A10,A-Stop 10,10,A03,10/25/2025 16:44,10/25/2025 16:45,0.93,120,3,0,0,1,50,0.02,Low,15,0,0,0,42.457647,-76.473686,Cloudy,10/25/2025 16:00,Peak,16:00:00,17:00:00,A03,Gillig Low Floor,50,2,TRUE,Suburban,Route A - Downtown Loop,12.3,#1f77b4,15.5,0.22,Cloudy
10/25/2025 16:45,10/25/2025,B,Route B - University Express,B-0-20251025-06,0,Outbound,B10,B-Stop 10,10,B04,10/25/2025 16:45,10/25/2025 16:45,-0.01,120,1,1,1,2,36,0.06,Low,17,1,0,0,42.467656,-76.452978,Cloudy,10/25/2025 16:00,Peak,16:00:00,17:00:00,B04,Proterra ZX5,36,3,TRUE,Suburban,Route B - University Express,18.7,#ff7f0e,15.5,0.22,Cloudy
10/25/2025 16:46,10/25/2025,C,Route C - Airport Connector,C-0-20251025-06,0,Outbound,C10,C-Stop 10,10,C03,10/25/2025 16:45,10/25/2025 16:46,0.62,120,0,0,1,2,50,0.04,Low,18,1,0,0,42.478012,-76.432211,Cloudy,10/25/2025 16:00,Peak,16:00:00,17:00:00,C03,Proterra ZX5,50,2,TRUE,Suburban,Route C - Airport Connector,25.4,#2ca02c,15.5,0.22,Cloudy
10/25/2025 16:47,10/25/2025,C,Route C - Airport Connector,C-1-20251025-06,1,Inbound,C01,C-Stop 1,10,C05,10/25/2025 16:46,10/25/2025 16:47,0.6,120,2,2,0,2,36,0.06,Low,25,1,0,0,42.459856,-76.460193,Cloudy,10/25/2025 16:00,Peak,16:00:00,17:00:00,C05,Gillig Low Floor,36,2,FALSE,Urban,Route C - Airport Connector,25.4,#2ca02c,15.5,0.22,Cloudy
10/26/2025 5:59,10/26/2025,B,Route B - University Express,B-0-20251026-01,0,Outbound,B01,B-Stop 1,1,B01,10/26/2025 6:00,10/26/2025 5:59,-0.74,120,3,3,0,3,45,0.07,Low,31,1,0,0,42.450166,-76.480151,Clear,10/26/2025 5:00,Peak,6:00:00,7:00:00,B01,New Flyer Xcelsior,45,2,TRUE,Urban,Route B - University Express,18.7,#ff7f0e,8.1,0.09,Clear
10/26/2025 5:59,10/26/2025,A,Route A - Downtown Loop,A-0-20251026-01,0,Outbound,A01,A-Stop 1,1,A02,10/26/2025 6:00,10/26/2025 5:59,-0.23,120,1,0,0,0,40,0,Low,15,0,0,0,42.439913,-76.500095,Clear,10/26/2025 5:00,Peak,6:00:00,7:00:00,A02,Proterra ZX5,40,2,TRUE,Urban,Route A - Downtown Loop,12.3,#1f77b4,8.1,0.09,Clear
10/26/2025 5:59,10/26/2025,B,Route B - University Express,B-1-20251026-01,1,Inbound,B10,B-Stop 10,1,B01,10/26/2025 6:00,10/26/2025 5:59,-0.05,120,0,0,0,0,45,0,Low,15,0,0,0,42.467347,-76.453009,Clear,10/26/2025 5:00,Peak,6:00:00,7:00:00,B01,New Flyer Xcelsior,45,2,TRUE,Suburban,Route B - University Express,18.7,#ff7f0e,8.1,0.09,Clear
10/26/2025 6:00,10/26/2025,A,Route A - Downtown Loop,A-1-20251026-01,1,Inbound,A10,A-Stop 10,1,A05,10/26/2025 6:00,10/26/2025 6:00,0.49,120,1,1,0,1,50,0.02,Low,31,1,0,0,42.457801,-76.473259,Clear,10/26/2025 6:00,Peak,6:00:00,7:00:00,A05,Proterra ZX5,50,3,TRUE,Suburban,Route A - Downtown Loop,12.3,#1f77b4,10.9,0,Clear
10/26/2025 6:00,10/26/2025,C,Route C - Airport Connector,C-0-20251026-01,0,Outbound,C01,C-Stop 1,1,C04,10/26/2025 6:00,10/26/2025 6:00,0.74,120,2,0,0,0,40,0,Low,15,0,0,0,42.460175,-76.459788,Clear,10/26/2025 6:00,Peak,6:00:00,7:00:00,C04,Gillig Low Floor,40,2,TRUE,Urban,Route C - Airport Connector,25.4,#2ca02c,10.9,0,Clear
10/26/2025 6:00,10/26/2025,C,Route C - Airport Connector,C-1-20251026-01,1,Inbound,C10,C-Stop 10,1,C04,10/26/2025 6:00,10/26/2025 6:00,0.73,120,3,3,0,3,40,0.07,Low,24,1,0,0,42.478341,-76.432726,Clear,10/26/2025 6:00,Peak,6:00:00,7:00:00,C04,Gillig Low Floor,40,2,TRUE,Suburban,Route C - Airport Connector,25.4,#2ca02c,10.9,0,Clear
10/26/2025 6:03,10/26/2025,A,Route A - Downtown Loop,A-0-20251026-01,0,Outbound,A02,A-Stop 2,2,A02,10/26/2025 6:04,10/26/2025 6:03,-0.67,120,4,1,2,0,40,0,Low,15,1,0,0,42.442046,-76.496392,Clear,10/26/2025 6:00,Peak,6:00:00,7:00:00,A02,Proterra ZX5,40,2,TRUE,Urban,Route A - Downtown Loop,12.3,#1f77b4,10.9,0,Clear
10/26/2025 6:04,10/26/2025,A,Route A - Downtown Loop,A-1-20251026-01,1,Inbound,A09,A-Stop 9,2,A05,10/26/2025 6:04,10/26/2025 6:04,-0.09,120,5,4,0,5,50,0.1,Low,26,1,0,0,42.45561,-76.476045,Clear,10/26/2025 6:00,Peak,6:00:00,7:00:00,A05,Proterra ZX5,50,3,TRUE,Suburban,Route A - Downtown Loop,12.3,#1f77b4,10.9,0,Clear
10/26/2025 6:04,10/26/2025,C,Route C - Airport Connector,C-0-20251026-01,0,Outbound,C02,C-Stop 2,2,C04,10/26/2025 6:04,10/26/2025 6:04,0.1,120,2,2,2,0,40,0,Low,35,1,0,0,42.461696,-76.457064,Clear,10/26/2025 6:00,Peak,6:00:00,7:00:00,C04,Gillig Low Floor,40,2,TRUE,Urban,Route C - Airport Connector,25.4,#2ca02c,10.9,0,Clear
10/26/2025 6:05,10/26/2025,B,Route B - University Express,B-0-20251026-01,0,Outbound,B02,B-Stop 2,2,B01,10/26/2025 6:04,10/26/2025 6:05,1.23,120,4,4,1,6,45,0.13,Low,20,1,0,0,42.451992,-76.477152,Clear,10/26/2025 6:00,Peak,6:00:00,7:00:00,B01,New Flyer Xcelsior,45,2,TRUE,Urban,Route B - University Express,18.7,#ff7f0e,10.9,0,Clear
10/26/2025 6:05,10/26/2025,B,Route B - University Express,B-1-20251026-01,1,Inbound,B09,B-Stop 9,2,B01,10/26/2025 6:05,10/26/2025 6:05,0.17,120,3,0,4,0,45,0,Low,21,1,1,0,42.466017,-76.456324,Clear,10/26/2025 6:00,Peak,6:00:00,7:00:00,B01,New Flyer Xcelsior,45,2,TRUE,Suburban,Route B - University Express,18.7,#ff7f0e,10.9,0,Clear
10/26/2025 6:06,10/26/2025,C,Route C - Airport Connector,C-1-20251026-01,1,Inbound,C09,C-Stop 9,2,C04,10/26/2025 6:05,10/26/2025 6:06,0.52,120,0,0,2,1,40,0.03,Low,30,1,0,0,42.475366,-76.436225,Clear,10/26/2025 6:00,Peak,6:00:00,7:00:00,C04,Gillig Low Floor,40,2,TRUE,Suburban,Route C - Airport Connector,25.4,#2ca02c,10.9,0,Clear
10/26/2025 6:09,10/26/2025,A,Route A - Downtown Loop,A-0-20251026-01,0,Outbound,A03,A-Stop 3,3,A02,10/26/2025 6:10,10/26/2025 6:09,-0.99,120,2,2,1,1,40,0.03,Low,30,1,0,0,42.443756,-76.494039,Clear,10/26/2025 6:00,Peak,6:00:00,7:00:00,A02,Proterra ZX5,40,2,TRUE,Urban,Route A - Downtown Loop,12.3,#1f77b4,10.9,0,Clear
10/26/2025 6:09,10/26/2025,B,Route B - University Express,B-0-20251026-01,0,Outbound,B03,B-Stop 3,3,B01,10/26/2025 6:09,10/26/2025 6:09,0.27,120,3,2,1,7,45,0.16,Low,24,1,0,0,42.453801,-76.473968,Clear,10/26/2025 6:00,Peak,6:00:00,7:00:00,B01,New Flyer Xcelsior,45,2,TRUE,Urban,Route B - University Express,18.7,#ff7f0e,10.9,0,Clear
10/26/2025 6:10,10/26/2025,C,Route C - Airport Connector,C-1-20251026-01,1,Inbound,C08,C-Stop 8,3,C04,10/26/2025 6:10,10/26/2025 6:10,-0.3,120,6,1,1,1,40,0.03,Low,28,1,0,1,42.474423,-76.439388,Clear,10/26/2025 6:00,Peak,6:00:00,7:00:00,C04,Gillig Low Floor,40,2,TRUE,Suburban,Route C - Airport Connector,25.4,#2ca02c,10.9,0,Clear
10/26/2025 6:10,10/26/2025,C,Route C - Airport Connector,C-0-20251026-01,0,Outbound,C03,C-Stop 3,3,C04,10/26/2025 6:09,10/26/2025 6:10,0.57,120,1,1,2,0,40,0,Low,18,1,0,0,42.463553,-76.454279,Clear,10/26/2025 6:00,Peak,6:00:00,7:00:00,C04,Gillig Low Floor,40,2,TRUE,Urban,Route C - Airport Connector,25.4,#2ca02c,10.9,0,Clear
10/26/2025 6:10,10/26/2025,A,Route A - Downtown Loop,A-1-20251026-01,1,Inbound,A08,A-Stop 8,3,A05,10/26/2025 6:09,10/26/2025 6:10,0.88,120,3,1,2,4,50,0.08,Low,22,1,0,0,42.453565,-76.478889,Clear,10/26/2025 6:00,Peak,6:00:00,7:00:00,A05,Proterra ZX5,50,3,TRUE,Suburban,Route A - Downtown Loop,12.3,#1f77b4,10.9,0,Clear
10/26/2025 6:10,10/26/2025,B,Route B - University Express,B-1-20251026-01,1,Inbound,B08,B-Stop 8,3,B01,10/26/2025 6:10,10/26/2025 6:10,0.23,120,2,1,2,0,45,0,Low,28,1,0,0,42.464118,-76.459519,Clear,10/26/2025 6:00,Peak,6:00:00,7:00:00,B01,New Flyer Xcelsior,45,2,TRUE,Suburban,Route B - University Express,18.7,#ff7f0e,10.9,0,Clear
10/26/2025 6:14,10/26/2025,C,Route C - Airport Connector,C-1-20251026-01,1,Inbound,C07,C-Stop 7,4,C04,10/26/2025 6:15,10/26/2025 6:14,-0.65,120,3,1,2,0,40,0,Low,15,1,0,0,42.471735,-76.441593,Clear,10/26/2025 6:00,Peak,6:00:00,7:00:00,C04,Gillig Low Floor,40,2,TRUE,Suburban,Route C - Airport Connector,25.4,#2ca02c,10.9,0,Clear
10/26/2025 6:14,10/26/2025,A,Route A - Downtown Loop,A-1-20251026-01,1,Inbound,A07,A-Stop 7,4,A05,10/26/2025 6:13,10/26/2025 6:14,0.68,120,0,0,1,3,50,0.06,Low,17,1,0,0,42.452212,-76.482501,Clear,10/26/2025 6:00,Peak,6:00:00,7:00:00,A05,Proterra ZX5,50,3,TRUE,Suburban,Route A - Downtown Loop,12.3,#1f77b4,10.9,0,Clear
10/26/2025 6:14,10/26/2025,B,Route B - University Express,B-1-20251026-01,1,Inbound,B07,B-Stop 7,4,B01,10/26/2025 6:15,10/26/2025 6:14,-0.64,120,0,0,2,0,45,0,Low,30,1,0,0,42.46152,-76.462366,Clear,10/26/2025 6:00,Peak,6:00:00,7:00:00,B01,New Flyer Xcelsior,45,2,TRUE,Suburban,Route B - University Express,18.7,#ff7f0e,10.9,0,Clear
10/26/2025 6:16,10/26/2025,B,Route B - University Express,B-0-20251026-01,0,Outbound,B04,B-Stop 4,4,B01,10/26/2025 6:14,10/26/2025 6:16,1.26,120,1,1,1,7,45,0.16,Low,26,1,0,0,42.455547,-76.470839,Clear,10/26/2025 6:00,Peak,6:00:00,7:00:00,B01,New Flyer Xcelsior,45,2,TRUE,Urban,Route B - University Express,18.7,#ff7f0e,10.9,0,Clear
10/26/2025 6:16,10/26/2025,A,Route A - Downtown Loop,A-0-20251026-01,0,Outbound,A04,A-Stop 4,4,A02,10/26/2025 6:15,10/26/2025 6:16,0.93,120,1,1,2,0,40,0,Low,18,1,0,0,42.446488,-76.491134,Clear,10/26/2025 6:00,Peak,6:00:00,7:00:00,A02,Proterra ZX5,40,2,TRUE,Urban,Route A - Downtown Loop,12.3,#1f77b4,10.9,0,Clear
10/26/2025 6:16,10/26/2025,C,Route C - Airport Connector,C-0-20251026-01,0,Outbound,C04,C-Stop 4,4,C04,10/26/2025 6:15,10/26/2025 6:16,0.83,120,3,1,2,0,40,0,Low,30,1,0,0,42.465279,-76.450554,Clear,10/26/2025 6:00,Peak,6:00:00,7:00:00,C04,Gillig Low Floor,40,2,TRUE,Urban,Route C - Airport Connector,25.4,#2ca02c,10.9,0,Clear
10/26/2025 6:17,10/26/2025,A,Route A - Downtown Loop,A-1-20251026-01,1,Inbound,A06,A-Stop 6,5,A05,10/26/2025 6:18,10/26/2025 6:17,-0.55,120,2,0,0,3,50,0.06,Low,15,0,0,0,42.449668,-76.485054,Clear,10/26/2025 6:00,Peak,6:00:00,7:00:00,A05,Proterra ZX5,50,3,TRUE,Urban,Route A - Downtown Loop,12.3,#1f77b4,10.9,0,Clear
10/26/2025 6:19,10/26/2025,B,Route B - University Express,B-0-20251026-01,0,Outbound,B05,B-Stop 5,5,B01,10/26/2025 6:20,10/26/2025 6:19,-1,120,3,1,2,6,45,0.13,Low,19,1,0,0,42.458059,-76.467905,Clear,10/26/2025 6:00,Peak,6:00:00,7:00:00,B01,New Flyer Xcelsior,45,2,TRUE,Urban,Route B - University Express,18.7,#ff7f0e,10.9,0,Clear
10/26/2025 6:20,10/26/2025,C,Route C - Airport Connector,C-0-20251026-01,0,Outbound,C05,C-Stop 5,5,C04,10/26/2025 6:20,10/26/2025 6:20,-0.59,120,4,4,2,2,40,0.05,Low,31,1,0,0,42.468464,-76.448695,Clear,10/26/2025 6:00,Peak,6:00:00,7:00:00,C04,Gillig Low Floor,40,2,TRUE,Urban,Route C - Airport Connector,25.4,#2ca02c,10.9,0,Clear
10/26/2025 6:20,10/26/2025,B,Route B - University Express,B-1-20251026-01,1,Inbound,B06,B-Stop 6,5,B01,10/26/2025 6:20,10/26/2025 6:20,0.29,120,2,2,1,1,45,0.02,Low,15,1,0,0,42.459626,-76.464443,Clear,10/26/2025 6:00,Peak,6:00:00,7:00:00,B01,New Flyer Xcelsior,45,2,TRUE,Urban,Route B - University Express,18.7,#ff7f0e,10.9,0,Clear
10/26/2025 6:20,10/26/2025,A,Route A - Downtown Loop,A-0-20251026-01,0,Outbound,A05,A-Stop 5,5,A02,10/26/2025 6:20,10/26/2025 6:20,0.43,120,1,1,2,0,40,0,Low,21,1,0,0,42.448024,-76.487794,Clear,10/26/2025 6:00,Peak,6:00:00,7:00:00,A02,Proterra ZX5,40,2,TRUE,Urban,Route A - Downtown Loop,12.3,#1f77b4,10.9,0,Clear
10/26/2025 6:21,10/26/2025,C,Route C - Airport Connector,C-1-20251026-01,1,Inbound,C06,C-Stop 6,5,C04,10/26/2025 6:20,10/26/2025 6:21,0.63,120,0,0,2,0,40,0,Low,24,1,0,0,42.469692,-76.444925,Clear,10/26/2025 6:00,Peak,6:00:00,7:00:00,C04,Gillig Low Floor,40,2,TRUE,Urban,Route C - Airport Connector,25.4,#2ca02c,10.9,0,Clear
10/26/2025 6:24,10/26/2025,A,Route A - Downtown Loop,A-1-20251026-01,1,Inbound,A05,A-Stop 5,6,A05,10/26/2025 6:24,10/26/2025 6:24,0.11,120,3,3,0,6,50,0.12,Low,32,1,0,0,42.448073,-76.487666,Clear,10/26/2025 6:00,Peak,6:00:00,7:00:00,A05,Proterra ZX5,50,3,TRUE,Urban,Route A - Downtown Loop,12.3,#1f77b4,10.9,0,Clear
10/26/2025 6:24,10/26/2025,B,Route B - University Express,B-1-20251026-01,1,Inbound,B05,B-Stop 5,6,B01,10/26/2025 6:25,10/26/2025 6:24,-0.64,120,0,0,0,1,45,0.02,Low,15,1,0,0,42.457731,-76.468185,Clear,10/26/2025 6:00,Peak,6:00:00,7:00:00,B01,New Flyer Xcelsior,45,2,TRUE,Urban,Route B - University Express,18.7,#ff7f0e,10.9,0,Clear
10/26/2025 6:25,10/26/2025,C,Route C - Airport Connector,C-0-20251026-01,0,Outbound,C06,C-Stop 6,6,C04,10/26/2025 6:25,10/26/2025 6:25,0.59,120,2,0,1,1,40,0.03,Low,29,1,0,0,42.470067,-76.445273,Clear,10/26/2025 6:00,Peak,6:00:00,7:00:00,C04,Gillig Low Floor,40,2,TRUE,Urban,Route C - Airport Connector,25.4,#2ca02c,10.9,0,Clear
10/26/2025 6:25,10/26/2025,C,Route C - Airport Connector,C-1-20251026-01,1,Inbound,C05,C-Stop 5,6,C04,10/26/2025 6:25,10/26/2025 6:25,0.41,120,3,3,1,2,40,0.05,Low,24,1,0,0,42.468419,-76.448661,Clear,10/26/2025 6:00,Peak,6:00:00,7:00:00,C04,Gillig Low Floor,40,2,TRUE,Urban,Route C - Airport Connector,25.4,#2ca02c,10.9,0,Clear
10/26/2025 6:26,10/26/2025,A,Route A - Downtown Loop,A-0-20251026-01,0,Outbound,A06,A-Stop 6,6,A02,10/26/2025 6:25,10/26/2025 6:26,0.94,120,3,3,2,1,40,0.03,Low,21,1,0,0,42.45012,-76.485087,Clear,10/26/2025 6:00,Peak,6:00:00,7:00:00,A02,Proterra ZX5,40,2,TRUE,Urban,Route A - Downtown Loop,12.3,#1f77b4,10.9,0,Clear
10/26/2025 6:26,10/26/2025,B,Route B - University Express,B-0-20251026-01,0,Outbound,B06,B-Stop 6,6,B01,10/26/2025 6:25,10/26/2025 6:26,0.68,120,1,1,2,5,45,0.11,Low,20,1,0,0,42.460109,-76.464509,Clear,10/26/2025 6:00,Peak,6:00:00,7:00:00,B01,New Flyer Xcelsior,45,2,TRUE,Urban,Route B - University Express,18.7,#ff7f0e,10.9,0,Clear
10/26/2025 6:29,10/26/2025,B,Route B - University Express,B-1-20251026-01,1,Inbound,B04,B-Stop 4,7,B01,10/26/2025 6:29,10/26/2025 6:29,-0.22,120,3,0,2,0,45,0,Low,22,1,0,0,42.455688,-76.470712,Clear,10/26/2025 6:00,Peak,6:00:00,7:00:00,B01,New Flyer Xcelsior,45,2,TRUE,Urban,Route B - University Express,18.7,#ff7f0e,10.9,0,Clear
10/26/2025 6:30,10/26/2025,A,Route A - Downtown Loop,A-1-20251026-01,1,Inbound,A04,A-Stop 4,7,A05,10/26/2025 6:29,10/26/2025 6:30,0.37,120,1,1,3,4,50,0.08,Low,31,1,0,0,42.446483,-76.490913,Clear,10/26/2025 6:00,Peak,6:00:00,7:00:00,A05,Proterra ZX5,50,3,TRUE,Urban,Route A - Downtown Loop,12.3,#1f77b4,10.9,0,Clear
10/26/2025 6:30,10/26/2025,C,Route C - Airport Connector,C-0-20251026-01,0,Outbound,C07,C-Stop 7,7,C04,10/26/2025 6:29,10/26/2025 6:30,0.19,120,0,0,0,1,40,0.03,Low,15,1,0,0,42.471485,-76.441614,Clear,10/26/2025 6:00,Peak,6:00:00,7:00:00,C04,Gillig Low Floor,40,2,TRUE,Suburban,Route C - Airport Connector,25.4,#2ca02c,10.9,0,Clear
10/26/2025 6:30,10/26/2025,A,Route A - Downtown Loop,A-0-20251026-01,0,Outbound,A07,A-Stop 7,7,A02,10/26/2025 6:30,10/26/2025 6:30,0.37,120,5,2,3,0,40,0,Low,31,1,0,0,42.452177,-76.482779,Clear,10/26/2025 6:00,Peak,6:00:00,7:00:00,A02,Proterra ZX5,40,2,TRUE,Suburban,Route A - Downtown Loop,12.3,#1f77b4,10.9,0,Clear
10/26/2025 6:30,10/26/2025,C,Route C - Airport Connector,C-1-20251026-01,1,Inbound,C04,C-Stop 4,7,C04,10/26/2025 6:30,10/26/2025 6:30,0.08,120,0,0,2,0,40,0,Low,33,1,0,0,42.466157,-76.450742,Clear,10/26/2025 6:00,Peak,6:00:00,7:00:00,C04,Gillig Low Floor,40,2,TRUE,Urban,Route C - Airport Connector,25.4,#2ca02c,10.9,0,Clear
10/26/2025 6:32,10/26/2025,B,Route B - University Express,B-0-20251026-01,0,Outbound,B07,B-Stop 7,7,B01,10/26/2025 6:30,10/26/2025 6:32,1.46,120,1,1,3,3,45,0.07,Low,30,1,0,0,42.46193,-76.462421,Clear,10/26/2025 6:00,Peak,6:00:00,7:00:00,B01,New Flyer Xcelsior,45,2,TRUE,Suburban,Route B - University Express,18.7,#ff7f0e,10.9,0,Clear
10/26/2025 6:34,10/26/2025,C,Route C - Airport Connector,C-0-20251026-01,0,Outbound,C08,C-Stop 8,8,C04,10/26/2025 6:34,10/26/2025 6:34,-0.13,120,3,0,2,0,40,0,Low,20,1,0,0,42.474198,-76.43864,Clear,10/26/2025 6:00,Peak,6:00:00,7:00:00,C04,Gillig Low Floor,40,2,TRUE,Suburban,Route C - Airport Connector,25.4,#2ca02c,10.9,0,Clear
10/26/2025 6:35,10/26/2025,A,Route A - Downtown Loop,A-0-20251026-01,0,Outbound,A08,A-Stop 8,8,A02,10/26/2025 6:34,10/26/2025 6:35,0.24,120,4,2,2,0,40,0,Low,25,1,0,0,42.453627,-76.47934,Clear,10/26/2025 6:00,Peak,6:00:00,7:00:00,A02,Proterra ZX5,40,2,TRUE,Suburban,Route A - Downtown Loop,12.3,#1f77b4,10.9,0,Clear
10/26/2025 6:35,10/26/2025,C,Route C - Airport Connector,C-1-20251026-01,1,Inbound,C03,C-Stop 3,8,C04,10/26/2025 6:35,10/26/2025 6:35,0.01,120,0,0,1,0,40,0,Low,29,1,0,0,42.463115,-76.454363,Clear,10/26/2025 6:00,Peak,6:00:00,7:00:00,C04,Gillig Low Floor,40,2,TRUE,Urban,Route C - Airport Connector,25.4,#2ca02c,10.9,0,Clear
10/26/2025 6:35,10/26/2025,A,Route A - Downtown Loop,A-1-20251026-01,1,Inbound,A03,A-Stop 3,8,A05,10/26/2025 6:34,10/26/2025 6:35,0.77,120,5,1,2,3,50,0.06,Low,17,1,0,0,42.444127,-76.494227,Clear,10/26/2025 6:00,Peak,6:00:00,7:00:00,A05,Proterra ZX5,50,3,TRUE,Urban,Route A - Downtown Loop,12.3,#1f77b4,10.9,0,Clear
10/26/2025 6:36,10/26/2025,B,Route B - University Express,B-1-20251026-01,1,Inbound,B03,B-Stop 3,8,B01,10/26/2025 6:35,10/26/2025 6:36,0.97,120,4,2,1,1,45,0.02,Low,22,1,0,0,42.453661,-76.473966,Clear,10/26/2025 6:00,Peak,6:00:00,7:00:00,B01,New Flyer Xcelsior,45,2,TRUE,Urban,Route B - University Express,18.7,#ff7f0e,10.9,0,Clear
10/26/2025 6:36,10/26/2025,B,Route B - University Express,B-0-20251026-01,0,Outbound,B08,B-Stop 8,8,B01,10/26/2025 6:35,10/26/2025 6:36,1.07,120,2,2,1,4,45,0.09,Low,29,1,0,0,42.464278,-76.459567,Clear,10/26/2025 6:00,Peak,6:00:00,7:00:00,B01,New Flyer Xcelsior,45,2,TRUE,Suburban,Route B - University Express,18.7,#ff7f0e,10.9,0,Clear
10/26/2025 6:38,10/26/2025,C,Route C - Airport Connector,C-0-20251026-01,0,Outbound,C09,C-Stop 9,9,C04,10/26/2025 6:39,10/26/2025 6:38,-0.56,120,3,1,2,0,40,0,Low,26,1,0,0,42.47576,-76.435971,Clear,10/26/2025 6:00,Peak,6:00:00,7:00:00,C04,Gillig Low Floor,40,2,TRUE,Suburban,Route C - Airport Connector,25.4,#2ca02c,10.9,0,Clear
10/26/2025 6:39,10/26/2025,B,Route B - University Express,B-0-20251026-01,0,Outbound,B09,B-Stop 9,9,B01,10/26/2025 6:40,10/26/2025 6:39,-1,120,1,1,3,2,45,0.04,Low,29,1,0,0,42.466174,-76.456613,Clear,10/26/2025 6:00,Peak,6:00:00,7:00:00,B01,New Flyer Xcelsior,45,2,TRUE,Suburban,Route B - University Express,18.7,#ff7f0e,10.9,0,Clear
10/26/2025 6:39,10/26/2025,A,Route A - Downtown Loop,A-1-20251026-01,1,Inbound,A02,A-Stop 2,9,A05,10/26/2025 6:40,10/26/2025 6:39,-0.49,120,5,2,1,4,50,0.08,Low,29,1,0,0,42.442076,-76.496393,Clear,10/26/2025 6:00,Peak,6:00:00,7:00:00,A05,Proterra ZX5,50,3,TRUE,Urban,Route A - Downtown Loop,12.3,#1f77b4,10.9,0,Clear
10/26/2025 6:39,10/26/2025,A,Route A - Downtown Loop,A-0-20251026-01,0,Outbound,A09,A-Stop 9,9,A02,10/26/2025 6:40,10/26/2025 6:39,-1,120,5,1,3,0,40,0,Low,27,1,0,0,42.455765,-76.475795,Clear,10/26/2025 6:00,Peak,6:00:00,7:00:00,A02,Proterra ZX5,40,2,TRUE,Suburban,Route A - Downtown Loop,12.3,#1f77b4,10.9,0,Clear
10/26/2025 6:40,10/26/2025,B,Route B - University Express,B-1-20251026-01,1,Inbound,B02,B-Stop 2,9,B01,10/26/2025 6:40,10/26/2025 6:40,-0.24,120,2,0,2,0,45,0,Low,21,1,0,0,42.451872,-76.477563,Clear,10/26/2025 6:00,Peak,6:00:00,7:00:00,B01,New Flyer Xcelsior,45,2,TRUE,Urban,Route B - University Express,18.7,#ff7f0e,10.9,0,Clear
10/26/2025 6:40,10/26/2025,C,Route C - Airport Connector,C-1-20251026-01,1,Inbound,C02,C-Stop 2,9,C04,10/26/2025 6:40,10/26/2025 6:40,0.91,120,0,0,1,0,40,0,Low,31,1,0,0,42.462084,-76.457066,Clear,10/26/2025 6:00,Peak,6:00:00,7:00:00,C04,Gillig Low Floor,40,2,TRUE,Urban,Route C - Airport Connector,25.4,#2ca02c,10.9,0,Clear
10/26/2025 6:43,10/26/2025,C,Route C - Airport Connector,C-0-20251026-01,0,Outbound,C10,C-Stop 10,10,C04,10/26/2025 6:44,10/26/2025 6:43,-1,120,0,0,2,0,40,0,Low,30,1,0,0,42.47803,-76.432719,Clear,10/26/2025 6:00,Peak,6:00:00,7:00:00,C04,Gillig Low Floor,40,2,TRUE,Suburban,Route C - Airport Connector,25.4,#2ca02c,10.9,0,Clear
10/26/2025 6:43,10/26/2025,C,Route C - Airport Connector,C-1-20251026-01,1,Inbound,C01,C-Stop 1,10,C04,10/26/2025 6:44,10/26/2025 6:43,-0.91,120,3,2,0,2,40,0.05,Low,17,1,0,0,42.460272,-76.459881,Clear,10/26/2025 6:00,Peak,6:00:00,7:00:00,C04,Gillig Low Floor,40,2,TRUE,Urban,Route C - Airport Connector,25.4,#2ca02c,10.9,0,Clear
10/26/2025 6:44,10/26/2025,A,Route A - Downtown Loop,A-1-20251026-01,1,Inbound,A01,A-Stop 1,10,A05,10/26/2025 6:44,10/26/2025 6:44,-0.83,120,1,1,3,2,50,0.04,Low,30,1,0,0,42.440474,-76.499711,Clear,10/26/2025 6:00,Peak,6:00:00,7:00:00,A05,Proterra ZX5,50,3,TRUE,Urban,Route A - Downtown Loop,12.3,#1f77b4,10.9,0,Clear
10/26/2025 6:45,10/26/2025,B,Route B - University Express,B-1-20251026-01,1,Inbound,B01,B-Stop 1,10,B01,10/26/2025 6:45,10/26/2025 6:45,0.14,120,2,2,1,1,45,0.02,Low,31,1,0,1,42.450245,-76.480105,Clear,10/26/2025 6:00,Peak,6:00:00,7:00:00,B01,New Flyer Xcelsior,45,2,TRUE,Urban,Route B - University Express,18.7,#ff7f0e,10.9,0,Clear
10/26/2025 6:45,10/26/2025,B,Route B - University Express,B-0-20251026-01,0,Outbound,B10,B-Stop 10,10,B01,10/26/2025 6:45,10/26/2025 6:45,0.37,120,6,1,3,0,45,0,Low,30,1,0,0,42.467749,-76.453343,Clear,10/26/2025 6:00,Peak,6:00:00,7:00:00,B01,New Flyer Xcelsior,45,2,TRUE,Suburban,Route B - University Express,18.7,#ff7f0e,10.9,0,Clear
10/26/2025 6:45,10/26/2025,A,Route A - Downtown Loop,A-0-20251026-01,0,Outbound,A10,A-Stop 10,10,A02,10/26/2025 6:45,10/26/2025 6:45,0,120,5,0,1,0,40,0,Low,30,1,0,0,42.457927,-76.473332,Clear,10/26/2025 6:00,Peak,6:00:00,7:00:00,A02,Proterra ZX5,40,2,TRUE,Suburban,Route A - Downtown Loop,12.3,#1f77b4,10.9,0,Clear
10/26/2025 7:59,10/26/2025,B,Route B - University Express,B-1-20251026-02,1,Inbound,B10,B-Stop 10,1,B01,10/26/2025 8:00,10/26/2025 7:59,-0.45,120,7,3,0,3,45,0.07,Low,29,1,0,0,42.467758,-76.452935,Rain,10/26/2025 7:00,Peak,8:00:00,9:00:00,B01,New Flyer Xcelsior,45,2,TRUE,Suburban,Route B - University Express,18.7,#ff7f0e,11.5,0.6,Rain
10/26/2025 7:59,10/26/2025,C,Route C - Airport Connector,C-1-20251026-02,1,Inbound,C10,C-Stop 10,1,C02,10/26/2025 8:00,10/26/2025 7:59,-0.12,120,6,3,1,2,36,0.06,Low,17,1,0,0,42.478208,-76.432714,Rain,10/26/2025 7:00,Peak,8:00:00,9:00:00,C02,New Flyer Xcelsior,36,2,TRUE,Suburban,Route C - Airport Connector,25.4,#2ca02c,11.5,0.6,Rain
10/26/2025 8:00,10/26/2025,A,Route A - Downtown Loop,A-1-20251026-02,1,Inbound,A10,A-Stop 10,1,A04,10/26/2025 8:00,10/26/2025 8:00,0.23,120,7,5,0,5,36,0.14,Low,15,1,0,0,42.457725,-76.473681,Rain,10/26/2025 8:00,Peak,8:00:00,9:00:00,A04,Proterra ZX5,36,2,TRUE,Suburban,Route A - Downtown Loop,12.3,#1f77b4,15.2,0.47,Rain
10/26/2025 8:00,10/26/2025,C,Route C - Airport Connector,C-0-20251026-02,0,Outbound,C01,C-Stop 1,1,C04,10/26/2025 8:00,10/26/2025 8:00,0.3,120,12,6,0,6,40,0.15,Low,15,1,0,0,42.460616,-76.459981,Rain,10/26/2025 8:00,Peak,8:00:00,9:00:00,C04,Gillig Low Floor,40,2,TRUE,Urban,Route C - Airport Connector,25.4,#2ca02c,15.2,0.47,Rain
10/26/2025 8:00,10/26/2025,A,Route A - Downtown Loop,A-0-20251026-02,0,Outbound,A01,A-Stop 1,1,A02,10/26/2025 8:00,10/26/2025 8:00,0.34,120,9,4,1,3,40,0.07,Low,24,1,0,0,42.439841,-76.50028,Rain,10/26/2025 8:00,Peak,8:00:00,9:00:00,A02,Proterra ZX5,40,2,TRUE,Urban,Route A - Downtown Loop,12.3,#1f77b4,15.2,0.47,Rain
10/26/2025 8:01,10/26/2025,B,Route B - University Express,B-0-20251026-02,0,Outbound,B01,B-Stop 1,1,B01,10/26/2025 8:00,10/26/2025 8:01,1.37,120,7,5,0,5,45,0.11,Low,24,1,0,0,42.450446,-76.480328,Rain,10/26/2025 8:00,Peak,8:00:00,9:00:00,B01,New Flyer Xcelsior,45,2,TRUE,Urban,Route B - University Express,18.7,#ff7f0e,15.2,0.47,Rain
10/26/2025 8:04,10/26/2025,B,Route B - University Express,B-1-20251026-02,1,Inbound,B09,B-Stop 9,2,B01,10/26/2025 8:04,10/26/2025 8:04,0.03,120,11,8,2,9,45,0.2,Low,21,1,0,0,42.466336,-76.456727,Rain,10/26/2025 8:00,Peak,8:00:00,9:00:00,B01,New Flyer Xcelsior,45,2,TRUE,Suburban,Route B - University Express,18.7,#ff7f0e,15.2,0.47,Rain
10/26/2025 8:05,10/26/2025,B,Route B - University Express,B-0-20251026-02,0,Outbound,B02,B-Stop 2,2,B01,10/26/2025 8:04,10/26/2025 8:05,1.03,120,9,6,3,8,45,0.18,Low,24,1,0,0,42.452009,-76.477611,Rain,10/26/2025 8:00,Peak,8:00:00,9:00:00,B01,New Flyer Xcelsior,45,2,TRUE,Urban,Route B - University Express,18.7,#ff7f0e,15.2,0.47,Rain
10/26/2025 8:05,10/26/2025,C,Route C - Airport Connector,C-1-20251026-02,1,Inbound,C09,C-Stop 9,2,C02,10/26/2025 8:05,10/26/2025 8:05,0.03,120,8,3,0,5,36,0.14,Low,28,1,0,0,42.475391,-76.436138,Rain,10/26/2025 8:00,Peak,8:00:00,9:00:00,C02,New Flyer Xcelsior,36,2,TRUE,Suburban,Route C - Airport Connector,25.4,#2ca02c,15.2,0.47,Rain
10/26/2025 8:05,10/26/2025,A,Route A - Downtown Loop,A-0-20251026-02,0,Outbound,A02,A-Stop 2,2,A02,10/26/2025 8:05,10/26/2025 8:05,0.76,120,11,4,2,5,40,0.12,Low,18,1,0,0,42.442096,-76.496206,Rain,10/26/2025 8:00,Peak,8:00:00,9:00:00,A02,Proterra ZX5,40,2,TRUE,Urban,Route A - Downtown Loop,12.3,#1f77b4,15.2,0.47,Rain
10/26/2025 8:06,10/26/2025,C,Route C - Airport Connector,C-0-20251026-02,0,Outbound,C02,C-Stop 2,2,C04,10/26/2025 8:05,10/26/2025 8:06,1.32,120,7,7,1,12,40,0.3,Low,19,1,0,0,42.462198,-76.457122,Rain,10/26/2025 8:00,Peak,8:00:00,9:00:00,C04,Gillig Low Floor,40,2,TRUE,Urban,Route C - Airport Connector,25.4,#2ca02c,15.2,0.47,Rain
10/26/2025 8:07,10/26/2025,A,Route A - Downtown Loop,A-1-20251026-02,1,Inbound,A09,A-Stop 9,2,A04,10/26/2025 8:04,10/26/2025 8:07,2.3,120,6,6,2,9,36,0.25,Low,26,1,0,0,42.455755,-76.475978,Rain,10/26/2025 8:00,Peak,8:00:00,9:00:00,A04,Proterra ZX5,36,2,TRUE,Suburban,Route A - Downtown Loop,12.3,#1f77b4,15.2,0.47,Rain
10/26/2025 8:09,10/26/2025,A,Route A - Downtown Loop,A-1-20251026-02,1,Inbound,A08,A-Stop 8,3,A04,10/26/2025 8:09,10/26/2025 8:09,-0.1,120,9,3,2,10,36,0.28,Low,16,1,0,0,42.453675,-76.479239,Rain,10/26/2025 8:00,Peak,8:00:00,9:00:00,A04,Proterra ZX5,36,2,TRUE,Suburban,Route A - Downtown Loop,12.3,#1f77b4,15.2,0.47,Rain
10/26/2025 8:10,10/26/2025,A,Route A - Downtown Loop,A-0-20251026-02,0,Outbound,A03,A-Stop 3,3,A02,10/26/2025 8:09,10/26/2025 8:10,1.11,120,8,5,2,8,40,0.2,Low,18,1,0,0,42.444261,-76.493685,Rain,10/26/2025 8:00,Peak,8:00:00,9:00:00,A02,Proterra ZX5,40,2,TRUE,Urban,Route A - Downtown Loop,12.3,#1f77b4,15.2,0.47,Rain
10/26/2025 8:10,10/26/2025,B,Route B - University Express,B-0-20251026-02,0,Outbound,B03,B-Stop 3,3,B01,10/26/2025 8:08,10/26/2025 8:10,2.1,120,10,3,2,9,45,0.2,Low,24,1,0,0,42.453782,-76.474049,Rain,10/26/2025 8:00,Peak,8:00:00,9:00:00,B01,New Flyer Xcelsior,45,2,TRUE,Urban,Route B - University Express,18.7,#ff7f0e,15.2,0.47,Rain
10/26/2025 8:11,10/26/2025,B,Route B - University Express,B-1-20251026-02,1,Inbound,B08,B-Stop 8,3,B01,10/26/2025 8:09,10/26/2025 8:11,1.7,120,6,6,2,13,45,0.29,Low,24,1,0,0,42.464048,-76.459511,Rain,10/26/2025 8:00,Peak,8:00:00,9:00:00,B01,New Flyer Xcelsior,45,2,TRUE,Suburban,Route B - University Express,18.7,#ff7f0e,15.2,0.47,Rain
10/26/2025 8:11,10/26/2025,C,Route C - Airport Connector,C-0-20251026-02,0,Outbound,C03,C-Stop 3,3,C04,10/26/2025 8:10,10/26/2025 8:11,0.97,120,9,3,1,14,40,0.35,Low,23,1,0,0,42.46339,-76.45413,Rain,10/26/2025 8:00,Peak,8:00:00,9:00:00,C04,Gillig Low Floor,40,2,TRUE,Urban,Route C - Airport Connector,25.4,#2ca02c,15.2,0.47,Rain
10/26/2025 8:12,10/26/2025,C,Route C - Airport Connector,C-1-20251026-02,1,Inbound,C08,C-Stop 8,3,C02,10/26/2025 8:10,10/26/2025 8:12,1.23,120,6,3,2,6,36,0.17,Low,33,1,0,0,42.474177,-76.438881,Rain,10/26/2025 8:00,Peak,8:00:00,9:00:00,C02,New Flyer Xcelsior,36,2,TRUE,Suburban,Route C - Airport Connector,25.4,#2ca02c,15.2,0.47,Rain
10/26/2025 8:14,10/26/2025,B,Route B - University Express,B-1-20251026-02,1,Inbound,B07,B-Stop 7,4,B01,10/26/2025 8:14,10/26/2025 8:14,-0.46,120,8,6,2,17,45,0.38,Low,16,1,0,0,42.462259,-76.461978,Rain,10/26/2025 8:00,Peak,8:00:00,9:00:00,B01,New Flyer Xcelsior,45,2,TRUE,Suburban,Route B - University Express,18.7,#ff7f0e,15.2,0.47,Rain
10/26/2025 8:15,10/26/2025,B,Route B - University Express,B-0-20251026-02,0,Outbound,B04,B-Stop 4,4,B01,10/26/2025 8:13,10/26/2025 8:15,1.29,120,8,5,1,13,45,0.29,Low,30,1,0,0,42.455747,-76.470873,Rain,10/26/2025 8:00,Peak,8:00:00,9:00:00,B01,New Flyer Xcelsior,45,2,TRUE,Urban,Route B - University Express,18.7,#ff7f0e,15.2,0.47,Rain
10/26/2025 8:15,10/26/2025,A,Route A - Downtown Loop,A-1-20251026-02,1,Inbound,A07,A-Stop 7,4,A04,10/26/2025 8:14,10/26/2025 8:15,1.1,120,9,5,2,13,36,0.36,Low,15,1,0,0,42.451808,-76.482316,Rain,10/26/2025 8:00,Peak,8:00:00,9:00:00,A04,Proterra ZX5,36,2,TRUE,Suburban,Route A - Downtown Loop,12.3,#1f77b4,15.2,0.47,Rain
10/26/2025 8:16,10/26/2025,C,Route C - Airport Connector,C-1-20251026-02,1,Inbound,C07,C-Stop 7,4,C02,10/26/2025 8:15,10/26/2025 8:16,1.1,120,10,4,0,10,36,0.28,Low,39,1,0,0,42.471761,-76.441766,Rain,10/26/2025 8:00,Peak,8:00:00,9:00:00,C02,New Flyer Xcelsior,36,2,TRUE,Suburban,Route C - Airport Connector,25.4,#2ca02c,15.2,0.47,Rain
10/26/2025 8:17,10/26/2025,A,Route A - Downtown Loop,A-0-20251026-02,0,Outbound,A04,A-Stop 4,4,A02,10/26/2025 8:14,10/26/2025 8:17,2.54,120,7,6,3,11,40,0.28,Low,22,1,0,0,42.446197,-76.491092,Rain,10/26/2025 8:00,Peak,8:00:00,9:00:00,A02,Proterra ZX5,40,2,TRUE,Urban,Route A - Downtown Loop,12.3,#1f77b4,15.2,0.47,Rain
10/26/2025 8:17,10/26/2025,C,Route C - Airport Connector,C-0-20251026-02,0,Outbound,C04,C-Stop 4,4,C04,10/26/2025 8:15,10/26/2025 8:17,1.7,120,7,6,2,18,40,0.45,Medium,28,1,0,0,42.465686,-76.450319,Rain,10/26/2025 8:00,Peak,8:00:00,9:00:00,C04,Gillig Low Floor,40,2,TRUE,Urban,Route C - Airport Connector,25.4,#2ca02c,15.2,0.47,Rain
10/26/2025 8:18,10/26/2025,A,Route A - Downtown Loop,A-1-20251026-02,1,Inbound,A06,A-Stop 6,5,A04,10/26/2025 8:19,10/26/2025 8:18,-0.8,120,6,4,1,16,36,0.44,Medium,22,1,0,0,42.449897,-76.485154,Rain,10/26/2025 8:00,Peak,8:00:00,9:00:00,A04,Proterra ZX5,36,2,TRUE,Urban,Route A - Downtown Loop,12.3,#1f77b4,15.2,0.47,Rain
10/26/2025 8:19,10/26/2025,B,Route B - University Express,B-0-20251026-02,0,Outbound,B05,B-Stop 5,5,B01,10/26/2025 8:18,10/26/2025 8:19,0.92,120,7,7,0,20,45,0.44,Medium,22,1,0,0,42.457942,-76.468314,Rain,10/26/2025 8:00,Peak,8:00:00,9:00:00,B01,New Flyer Xcelsior,45,2,TRUE,Urban,Route B - University Express,18.7,#ff7f0e,15.2,0.47,Rain
10/26/2025 8:19,10/26/2025,B,Route B - University Express,B-1-20251026-02,1,Inbound,B06,B-Stop 6,5,B01,10/26/2025 8:20,10/26/2025 8:19,-0.16,120,7,5,2,20,45,0.44,Medium,25,1,0,0,42.459876,-76.464462,Rain,10/26/2025 8:00,Peak,8:00:00,9:00:00,B01,New Flyer Xcelsior,45,2,TRUE,Urban,Route B - University Express,18.7,#ff7f0e,15.2,0.47,Rain
10/26/2025 8:20,10/26/2025,A,Route A - Downtown Loop,A-0-20251026-02,0,Outbound,A05,A-Stop 5,5,A02,10/26/2025 8:20,10/26/2025 8:20,0.24,120,7,4,2,13,40,0.33,Low,20,1,0,0,42.447761,-76.487777,Rain,10/26/2025 8:00,Peak,8:00:00,9:00:00,A02,Proterra ZX5,40,2,TRUE,Urban,Route A - Downtown Loop,12.3,#1f77b4,15.2,0.47,Rain
10/26/2025 8:21,10/26/2025,C,Route C - Airport Connector,C-1-20251026-02,1,Inbound,C06,C-Stop 6,5,C02,10/26/2025 8:20,10/26/2025 8:21,1.03,120,9,6,3,13,36,0.36,Low,23,1,0,0,42.470045,-76.445069,Rain,10/26/2025 8:00,Peak,8:00:00,9:00:00,C02,New Flyer Xcelsior,36,2,TRUE,Urban,Route C - Airport Connector,25.4,#2ca02c,15.2,0.47,Rain
10/26/2025 8:22,10/26/2025,C,Route C - Airport Connector,C-0-20251026-02,0,Outbound,C05,C-Stop 5,5,C04,10/26/2025 8:21,10/26/2025 8:22,1.39,120,10,6,0,24,40,0.6,Medium,24,1,0,0,42.467773,-76.448446,Rain,10/26/2025 8:00,Peak,8:00:00,9:00:00,C04,Gillig Low Floor,40,2,TRUE,Urban,Route C - Airport Connector,25.4,#2ca02c,15.2,0.47,Rain
10/26/2025 8:23,10/26/2025,B,Route B - University Express,B-0-20251026-02,0,Outbound,B06,B-Stop 6,6,B01,10/26/2025 8:23,10/26/2025 8:23,0.7,120,4,4,2,22,45,0.49,Medium,23,1,0,0,42.460077,-76.464685,Rain,10/26/2025 8:00,Peak,8:00:00,9:00:00,B01,New Flyer Xcelsior,45,2,TRUE,Urban,Route B - University Express,18.7,#ff7f0e,15.2,0.47,Rain
10/26/2025 8:25,10/26/2025,B,Route B - University Express,B-1-20251026-02,1,Inbound,B05,B-Stop 5,6,B01,10/26/2025 8:25,10/26/2025 8:25,0.29,120,7,5,3,22,45,0.49,Medium,33,1,0,0,42.457931,-76.467822,Rain,10/26/2025 8:00,Peak,8:00:00,9:00:00,B01,New Flyer Xcelsior,45,2,TRUE,Urban,Route B - University Express,18.7,#ff7f0e,15.2,0.47,Rain
10/26/2025 8:25,10/26/2025,A,Route A - Downtown Loop,A-0-20251026-02,0,Outbound,A06,A-Stop 6,6,A02,10/26/2025 8:24,10/26/2025 8:25,0.51,120,10,6,2,17,40,0.42,Medium,26,1,0,0,42.449783,-76.48474,Rain,10/26/2025 8:00,Peak,8:00:00,9:00:00,A02,Proterra ZX5,40,2,TRUE,Urban,Route A - Downtown Loop,12.3,#1f77b4,15.2,0.47,Rain
10/26/2025 8:25,10/26/2025,A,Route A - Downtown Loop,A-1-20251026-02,1,Inbound,A05,A-Stop 5,6,A04,10/26/2025 8:24,10/26/2025 8:25,0.98,120,8,7,1,22,36,0.61,Medium,17,1,0,0,42.448101,-76.48781,Rain,10/26/2025 8:00,Peak,8:00:00,9:00:00,A04,Proterra ZX5,36,2,TRUE,Urban,Route A - Downtown Loop,12.3,#1f77b4,15.2,0.47,Rain
10/26/2025 8:26,10/26/2025,C,Route C - Airport Connector,C-1-20251026-02,1,Inbound,C05,C-Stop 5,6,C02,10/26/2025 8:25,10/26/2025 8:26,0.83,120,5,5,1,17,36,0.47,Medium,21,1,0,0,42.46811,-76.448721,Rain,10/26/2025 8:00,Peak,8:00:00,9:00:00,C02,New Flyer Xcelsior,36,2,TRUE,Urban,Route C - Airport Connector,25.4,#2ca02c,15.2,0.47,Rain
10/26/2025 8:26,10/26/2025,C,Route C - Airport Connector,C-0-20251026-02,0,Outbound,C06,C-Stop 6,6,C04,10/26/2025 8:26,10/26/2025 8:26,0.62,120,10,5,1,28,40,0.7,Medium,25,1,0,1,42.469729,-76.445169,Rain,10/26/2025 8:00,Peak,8:00:00,9:00:00,C04,Gillig Low Floor,40,2,TRUE,Urban,Route C - Airport Connector,25.4,#2ca02c,15.2,0.47,Rain
10/26/2025 8:29,10/26/2025,C,Route C - Airport Connector,C-1-20251026-02,1,Inbound,C04,C-Stop 4,7,C02,10/26/2025 8:30,10/26/2025 8:29,-1,120,11,6,1,22,36,0.61,Medium,20,1,0,0,42.465287,-76.450829,Rain,10/26/2025 8:00,Peak,8:00:00,9:00:00,C02,New Flyer Xcelsior,36,2,TRUE,Urban,Route C - Airport Connector,25.4,#2ca02c,15.2,0.47,Rain
10/26/2025 8:29,10/26/2025,B,Route B - University Express,B-0-20251026-02,0,Outbound,B07,B-Stop 7,7,B01,10/26/2025 8:28,10/26/2025 8:29,0.96,120,5,5,2,25,45,0.56,Medium,15,1,0,0,42.461988,-76.46224,Rain,10/26/2025 8:00,Peak,8:00:00,9:00:00,B01,New Flyer Xcelsior,45,2,TRUE,Suburban,Route B - University Express,18.7,#ff7f0e,15.2,0.47,Rain
10/26/2025 8:30,10/26/2025,A,Route A - Downtown Loop,A-1-20251026-02,1,Inbound,A04,A-Stop 4,7,A04,10/26/2025 8:29,10/26/2025 8:30,0.16,120,6,6,2,26,36,0.72,Medium,29,1,0,0,42.446632,-76.490656,Rain,10/26/2025 8:00,Peak,8:00:00,9:00:00,A04,Proterra ZX5,36,2,TRUE,Urban,Route A - Downtown Loop,12.3,#1f77b4,15.2,0.47,Rain
10/26/2025 8:30,10/26/2025,C,Route C - Airport Connector,C-0-20251026-02,0,Outbound,C07,C-Stop 7,7,C04,10/26/2025 8:30,10/26/2025 8:30,0.19,120,9,6,1,33,40,0.82,High,25,1,0,0,42.471582,-76.441817,Rain,10/26/2025 8:00,Peak,8:00:00,9:00:00,C04,Gillig Low Floor,40,2,TRUE,Suburban,Route C - Airport Connector,25.4,#2ca02c,15.2,0.47,Rain
10/26/2025 8:30,10/26/2025,A,Route A - Downtown Loop,A-0-20251026-02,0,Outbound,A07,A-Stop 7,7,A02,10/26/2025 8:29,10/26/2025 8:30,0.81,120,8,7,3,21,40,0.53,Medium,24,1,0,0,42.452131,-76.482508,Rain,10/26/2025 8:00,Peak,8:00:00,9:00:00,A02,Proterra ZX5,40,2,TRUE,Suburban,Route A - Downtown Loop,12.3,#1f77b4,15.2,0.47,Rain
10/26/2025 8:31,10/26/2025,B,Route B - University Express,B-1-20251026-02,1,Inbound,B04,B-Stop 4,7,B01,10/26/2025 8:30,10/26/2025 8:31,0.79,120,4,4,1,25,45,0.56,Medium,18,1,0,0,42.455357,-76.470789,Rain,10/26/2025 8:00,Peak,8:00:00,9:00:00,B01,New Flyer Xcelsior,45,2,TRUE,Urban,Route B - University Express,18.7,#ff7f0e,15.2,0.47,Rain
10/26/2025 8:32,10/26/2025,B,Route B - University Express,B-0-20251026-02,0,Outbound,B08,B-Stop 8,8,B01,10/26/2025 8:33,10/26/2025 8:32,-0.5,120,8,8,1,32,45,0.71,Medium,34,1,0,0,42.464096,-76.459323,Rain,10/26/2025 8:00,Peak,8:00:00,9:00:00,B01,New Flyer Xcelsior,45,2,TRUE,Suburban,Route B - University Express,18.7,#ff7f0e,15.2,0.47,Rain
10/26/2025 8:33,10/26/2025,A,Route A - Downtown Loop,A-0-20251026-02,0,Outbound,A08,A-Stop 8,8,A02,10/26/2025 8:33,10/26/2025 8:33,-0.59,120,6,5,0,26,40,0.65,Medium,29,1,0,0,42.453483,-76.479212,Rain,10/26/2025 8:00,Peak,8:00:00,9:00:00,A02,Proterra ZX5,40,2,TRUE,Suburban,Route A - Downtown Loop,12.3,#1f77b4,15.2,0.47,Rain
10/26/2025 8:35,10/26/2025,B,Route B - University Express,B-1-20251026-02,1,Inbound,B03,B-Stop 3,8,B01,10/26/2025 8:35,10/26/2025 8:35,-0.26,120,6,6,1,30,45,0.67,Medium,26,1,0,0,42.453799,-76.473865,Rain,10/26/2025 8:00,Peak,8:00:00,9:00:00,B01,New Flyer Xcelsior,45,2,TRUE,Urban,Route B - University Express,18.7,#ff7f0e,15.2,0.47,Rain
10/26/2025 8:35,10/26/2025,A,Route A - Downtown Loop,A-1-20251026-02,1,Inbound,A03,A-Stop 3,8,A04,10/26/2025 8:34,10/26/2025 8:35,0.51,120,10,5,2,29,36,0.81,High,20,1,0,0,42.443798,-76.494117,Rain,10/26/2025 8:00,Peak,8:00:00,9:00:00,A04,Proterra ZX5,36,2,TRUE,Urban,Route A - Downtown Loop,12.3,#1f77b4,15.2,0.47,Rain
10/26/2025 8:36,10/26/2025,C,Route C - Airport Connector,C-1-20251026-02,1,Inbound,C03,C-Stop 3,8,C02,10/26/2025 8:35,10/26/2025 8:36,1.38,120,9,6,3,25,36,0.69,Medium,23,1,0,0,42.463773,-76.454293,Rain,10/26/2025 8:00,Peak,8:00:00,9:00:00,C02,New Flyer Xcelsior,36,2,TRUE,Urban,Route C - Airport Connector,25.4,#2ca02c,15.2,0.47,Rain
10/26/2025 8:38,10/26/2025,C,Route C - Airport Connector,C-0-20251026-02,0,Outbound,C08,C-Stop 8,8,C04,10/26/2025 8:36,10/26/2025 8:38,2.09,120,8,6,1,38,40,0.95,High,20,1,0,0,42.474382,-76.438826,Rain,10/26/2025 8:00,Peak,8:00:00,9:00:00,C04,Gillig Low Floor,40,2,TRUE,Suburban,Route C - Airport Connector,25.4,#2ca02c,15.2,0.47,Rain
10/26/2025 8:38,10/26/2025,A,Route A - Downtown Loop,A-0-20251026-02,0,Outbound,A09,A-Stop 9,9,A02,10/26/2025 8:38,10/26/2025 8:38,0.62,120,2,2,2,26,40,0.65,Medium,26,1,0,0,42.455383,-76.475861,Rain,10/26/2025 8:00,Peak,8:00:00,9:00:00,A02,Proterra ZX5,40,2,TRUE,Suburban,Route A - Downtown Loop,12.3,#1f77b4,15.2,0.47,Rain
10/26/2025 8:38,10/26/2025,B,Route B - University Express,B-0-20251026-02,0,Outbound,B09,B-Stop 9,9,B01,10/26/2025 8:38,10/26/2025 8:38,0.64,120,7,7,3,36,45,0.8,High,26,1,0,0,42.465959,-76.456626,Rain,10/26/2025 8:00,Peak,8:00:00,9:00:00,B01,New Flyer Xcelsior,45,2,TRUE,Suburban,Route B - University Express,18.7,#ff7f0e,15.2,0.47,Rain
10/26/2025 8:39,10/26/2025,C,Route C - Airport Connector,C-1-20251026-02,1,Inbound,C02,C-Stop 2,9,C02,10/26/2025 8:40,10/26/2025 8:39,-0.13,120,5,5,1,29,36,0.81,High,18,1,0,0,42.462108,-76.457025,Rain,10/26/2025 8:00,Peak,8:00:00,9:00:00,C02,New Flyer Xcelsior,36,2,TRUE,Urban,Route C - Airport Connector,25.4,#2ca02c,15.2,0.47,Rain
10/26/2025 8:40,10/26/2025,A,Route A - Downtown Loop,A-1-20251026-02,1,Inbound,A02,A-Stop 2,9,A04,10/26/2025 8:39,10/26/2025 8:40,1.27,120,5,5,2,32,36,0.89,High,15,1,0,0,42.442106,-76.496492,Rain,10/26/2025 8:00,Peak,8:00:00,9:00:00,A04,Proterra ZX5,36,2,TRUE,Urban,Route A - Downtown Loop,12.3,#1f77b4,15.2,0.47,Rain
10/26/2025 8:40,10/26/2025,B,Route B - University Express,B-1-20251026-02,1,Inbound,B02,B-Stop 2,9,B01,10/26/2025 8:40,10/26/2025 8:40,0.72,120,8,6,2,34,45,0.76,Medium,27,1,0,0,42.452459,-76.476915,Rain,10/26/2025 8:00,Peak,8:00:00,9:00:00,B01,New Flyer Xcelsior,45,2,TRUE,Urban,Route B - University Express,18.7,#ff7f0e,15.2,0.47,Rain
10/26/2025 8:42,10/26/2025,A,Route A - Downtown Loop,A-0-20251026-02,0,Outbound,A10,A-Stop 10,10,A02,10/26/2025 8:42,10/26/2025 8:42,0.02,120,9,9,2,33,40,0.82,High,20,1,0,0,42.457765,-76.473236,Rain,10/26/2025 8:00,Peak,8:00:00,9:00:00,A02,Proterra ZX5,40,2,TRUE,Suburban,Route A - Downtown Loop,12.3,#1f77b4,15.2,0.47,Rain
10/26/2025 8:43,10/26/2025,C,Route C - Airport Connector,C-0-20251026-02,0,Outbound,C09,C-Stop 9,9,C04,10/26/2025 8:41,10/26/2025 8:43,1.87,120,8,6,0,44,40,0.99,High,29,1,0,0,42.47552,-76.436176,Rain,10/26/2025 8:00,Peak,8:00:00,9:00:00,C04,Gillig Low Floor,40,2,TRUE,Suburban,Route C - Airport Connector,25.4,#2ca02c,15.2,0.47,Rain
10/26/2025 8:43,10/26/2025,B,Route B - University Express,B-1-20251026-02,1,Inbound,B01,B-Stop 1,10,B01,10/26/2025 8:44,10/26/2025 8:43,-1,120,9,6,3,37,45,0.82,High,26,1,0,1,42.450451,-76.479842,Rain,10/26/2025 8:00,Peak,8:00:00,9:00:00,B01,New Flyer Xcelsior,45,2,TRUE,Urban,Route B - University Express,18.7,#ff7f0e,15.2,0.47,Rain
10/26/2025 8:45,10/26/2025,B,Route B - University Express,B-0-20251026-02,0,Outbound,B10,B-Stop 10,10,B01,10/26/2025 8:44,10/26/2025 8:45,0.76,120,6,4,0,40,45,0.89,High,27,1,0,0,42.467732,-76.45302,Rain,10/26/2025 8:00,Peak,8:00:00,9:00:00,B01,New Flyer Xcelsior,45,2,TRUE,Suburban,Route B - University Express,18.7,#ff7f0e,15.2,0.47,Rain
10/26/2025 8:45,10/26/2025,A,Route A - Downtown Loop,A-1-20251026-02,1,Inbound,A01,A-Stop 1,10,A04,10/26/2025 8:44,10/26/2025 8:45,0.49,120,9,5,2,35,36,0.97,High,26,1,0,0,42.440334,-76.500177,Rain,10/26/2025 8:00,Peak,8:00:00,9:00:00,A04,Proterra ZX5,36,2,TRUE,Urban,Route A - Downtown Loop,12.3,#1f77b4,15.2,0.47,Rain
10/26/2025 8:46,10/26/2025,C,Route C - Airport Connector,C-1-20251026-02,1,Inbound,C01,C-Stop 1,10,C02,10/26/2025 8:45,10/26/2025 8:46,1.05,120,6,6,2,33,36,0.92,High,19,1,0,0,42.460001,-76.460085,Rain,10/26/2025 8:00,Peak,8:00:00,9:00:00,C02,New Flyer Xcelsior,36,2,TRUE,Urban,Route C - Airport Connector,25.4,#2ca02c,15.2,0.47,Rain
10/26/2025 8:48,10/26/2025,C,Route C - Airport Connector,C-0-20251026-02,0,Outbound,C10,C-Stop 10,10,C04,10/26/2025 8:47,10/26/2025 8:48,1.45,120,7,5,1,48,40,0.99,High,17,1,0,0,42.477972,-76.43303,Rain,10/26/2025 8:00,Peak,8:00:00,9:00:00,C04,Gillig Low Floor,40,2,TRUE,Suburban,Route C - Airport Connector,25.4,#2ca02c,15.2,0.47,Rain
10/26/2025 9:59,10/26/2025,A,Route A - Downtown Loop,A-1-20251026-03,1,Inbound,A10,A-Stop 10,1,A01,10/26/2025 10:00,10/26/2025 9:59,-0.09,120,1,1,1,0,36,0,Low,28,1,0,0,42.457501,-76.473544,Clear,10/26/2025 9:00,Off-peak,10:00:00,11:00:00,A01,Proterra ZX5,36,2,TRUE,Suburban,Route A - Downtown Loop,12.3,#1f77b4,15.6,0.38,Cloudy
10/26/2025 10:00,10/26/2025,B,Route B - University Express,B-0-20251026-03,0,Outbound,B01,B-Stop 1,1,B03,10/26/2025 10:00,10/26/2025 10:00,0.19,120,0,0,0,0,42,0,Low,15,0,0,0,42.450778,-76.480235,Clear,10/26/2025 10:00,Off-peak,10:00:00,11:00:00,B03,Proterra ZX5,42,2,TRUE,Urban,Route B - University Express,18.7,#ff7f0e,18.4,0.02,Clear
10/26/2025 10:00,10/26/2025,A,Route A - Downtown Loop,A-0-20251026-03,0,Outbound,A01,A-Stop 1,1,A04,10/26/2025 10:00,10/26/2025 10:00,0.57,120,8,0,0,0,36,0,Low,19,0,0,0,42.440446,-76.500431,Clear,10/26/2025 10:00,Off-peak,10:00:00,11:00:00,A04,Proterra ZX5,36,2,TRUE,Urban,Route A - Downtown Loop,12.3,#1f77b4,18.4,0.02,Clear
10/26/2025 10:00,10/26/2025,C,Route C - Airport Connector,C-0-20251026-03,0,Outbound,C01,C-Stop 1,1,C03,10/26/2025 10:00,10/26/2025 10:00,0.61,120,3,2,0,2,50,0.04,Low,17,1,0,0,42.460232,-76.459936,Clear,10/26/2025 10:00,Off-peak,10:00:00,11:00:00,C03,Proterra ZX5,50,2,TRUE,Urban,Route C - Airport Connector,25.4,#2ca02c,18.4,0.02,Clear
10/26/2025 10:00,10/26/2025,B,Route B - University Express,B-1-20251026-03,1,Inbound,B10,B-Stop 10,1,B05,10/26/2025 10:00,10/26/2025 10:00,0.96,120,0,0,0,0,42,0,Low,15,0,0,0,42.467556,-76.452854,Clear,10/26/2025 10:00,Off-peak,10:00:00,11:00:00,B05,Gillig Low Floor,42,2,TRUE,Suburban,Route B - University Express,18.7,#ff7f0e,18.4,0.02,Clear
10/26/2025 10:01,10/26/2025,C,Route C - Airport Connector,C-1-20251026-03,1,Inbound,C10,C-Stop 10,1,C01,10/26/2025 10:00,10/26/2025 10:01,1.42,120,2,2,0,2,45,0.04,Low,30,1,0,0,42.47828,-76.432517,Clear,10/26/2025 10:00,Off-peak,10:00:00,11:00:00,C01,New Flyer Xcelsior,45,2,FALSE,Suburban,Route C - Airport Connector,25.4,#2ca02c,18.4,0.02,Clear
10/26/2025 10:04,10/26/2025,A,Route A - Downtown Loop,A-1-20251026-03,1,Inbound,A09,A-Stop 9,2,A01,10/26/2025 10:05,10/26/2025 10:04,-0.34,120,1,1,1,0,36,0,Low,30,1,0,1,42.455947,-76.476052,Clear,10/26/2025 10:00,Off-peak,10:00:00,11:00:00,A01,Proterra ZX5,36,2,TRUE,Suburban,Route A - Downtown Loop,12.3,#1f77b4,18.4,0.02,Clear
10/26/2025 10:04,10/26/2025,C,Route C - Airport Connector,C-0-20251026-03,0,Outbound,C02,C-Stop 2,2,C03,10/26/2025 10:04,10/26/2025 10:04,0.03,120,6,2,3,1,50,0.02,Low,32,1,0,0,42.462306,-76.457305,Clear,10/26/2025 10:00,Off-peak,10:00:00,11:00:00,C03,Proterra ZX5,50,2,TRUE,Urban,Route C - Airport Connector,25.4,#2ca02c,18.4,0.02,Clear
10/26/2025 10:05,10/26/2025,B,Route B - University Express,B-0-20251026-03,0,Outbound,B02,B-Stop 2,2,B03,10/26/2025 10:05,10/26/2025 10:05,0.71,120,2,1,0,1,42,0.02,Low,33,1,0,0,42.451986,-76.47732,Clear,10/26/2025 10:00,Off-peak,10:00:00,11:00:00,B03,Proterra ZX5,42,2,TRUE,Urban,Route B - University Express,18.7,#ff7f0e,18.4,0.02,Clear
10/26/2025 10:06,10/26/2025,A,Route A - Downtown Loop,A-0-20251026-03,0,Outbound,A02,A-Stop 2,2,A04,10/26/2025 10:04,10/26/2025 10:06,1.09,120,8,3,1,2,36,0.06,Low,18,1,0,0,42.442638,-76.496397,Clear,10/26/2025 10:00,Off-peak,10:00:00,11:00:00,A04,Proterra ZX5,36,2,TRUE,Urban,Route A - Downtown Loop,12.3,#1f77b4,18.4,0.02,Clear
10/26/2025 10:06,10/26/2025,C,Route C - Airport Connector,C-1-20251026-03,1,Inbound,C09,C-Stop 9,2,C01,10/26/2025 10:05,10/26/2025 10:06,1.03,120,3,3,0,5,45,0.11,Low,27,1,0,0,42.475805,-76.43628,Clear,10/26/2025 10:00,Off-peak,10:00:00,11:00:00,C01,New Flyer Xcelsior,45,2,FALSE,Suburban,Route C - Airport Connector,25.4,#2ca02c,18.4,0.02,Clear
10/26/2025 10:06,10/26/2025,B,Route B - University Express,B-1-20251026-03,1,Inbound,B09,B-Stop 9,2,B05,10/26/2025 10:05,10/26/2025 10:06,1.23,120,4,0,1,0,42,0,Low,24,1,0,0,42.466166,-76.45651,Clear,10/26/2025 10:00,Off-peak,10:00:00,11:00:00,B05,Gillig Low Floor,42,2,TRUE,Suburban,Route B - University Express,18.7,#ff7f0e,18.4,0.02,Clear
10/26/2025 10:09,10/26/2025,C,Route C - Airport Connector,C-1-20251026-03,1,Inbound,C08,C-Stop 8,3,C01,10/26/2025 10:10,10/26/2025 10:09,-0.69,120,1,0,3,2,45,0.04,Low,23,1,0,0,42.474743,-76.43856,Clear,10/26/2025 10:00,Off-peak,10:00:00,11:00:00,C01,New Flyer Xcelsior,45,2,FALSE,Suburban,Route C - Airport Connector,25.4,#2ca02c,18.4,0.02,Clear
10/26/2025 10:09,10/26/2025,A,Route A - Downtown Loop,A-0-20251026-03,0,Outbound,A03,A-Stop 3,3,A04,10/26/2025 10:09,10/26/2025 10:09,0.08,120,3,2,1,3,36,0.08,Low,21,1,0,0,42.443599,-76.493862,Clear,10/26/2025 10:00,Off-peak,10:00:00,11:00:00,A04,Proterra ZX5,36,2,TRUE,Urban,Route A - Downtown Loop,12.3,#1f77b4,18.4,0.02,Clear
10/26/2025 10:09,10/26/2025,A,Route A - Downtown Loop,A-1-20251026-03,1,Inbound,A08,A-Stop 8,3,A01,10/26/2025 10:09,10/26/2025 10:09,0.03,120,0,0,1,0,36,0,Low,27,1,0,0,42.453762,-76.479005,Clear,10/26/2025 10:00,Off-peak,10:00:00,11:00:00,A01,Proterra ZX5,36,2,TRUE,Suburban,Route A - Downtown Loop,12.3,#1f77b4,18.4,0.02,Clear
10/26/2025 10:10,10/26/2025,C,Route C - Airport Connector,C-0-20251026-03,0,Outbound,C03,C-Stop 3,3,C03,10/26/2025 10:10,10/26/2025 10:10,-0.06,120,0,0,1,0,50,0,Low,18,1,0,0,42.463474,-76.454375,Clear,10/26/2025 10:00,Off-peak,10:00:00,11:00:00,C03,Proterra ZX5,50,2,TRUE,Urban,Route C - Airport Connector,25.4,#2ca02c,18.4,0.02,Clear
10/26/2025 10:10,10/26/2025,B,Route B - University Express,B-0-20251026-03,0,Outbound,B03,B-Stop 3,3,B03,10/26/2025 10:10,10/26/2025 10:10,-0.18,120,2,2,0,3,42,0.07,Low,37,1,0,0,42.453688,-76.474203,Clear,10/26/2025 10:00,Off-peak,10:00:00,11:00:00,B03,Proterra ZX5,42,2,TRUE,Urban,Route B - University Express,18.7,#ff7f0e,18.4,0.02,Clear
10/26/2025 10:11,10/26/2025,B,Route B - University Express,B-1-20251026-03,1,Inbound,B08,B-Stop 8,3,B05,10/26/2025 10:11,10/26/2025 10:11,-0.08,120,3,3,1,2,42,0.05,Low,25,1,0,0,42.464058,-76.45935,Clear,10/26/2025 10:00,Off-peak,10:00:00,11:00:00,B05,Gillig Low Floor,42,2,TRUE,Suburban,Route B - University Express,18.7,#ff7f0e,18.4,0.02,Clear
10/26/2025 10:14,10/26/2025,A,Route A - Downtown Loop,A-1-20251026-03,1,Inbound,A07,A-Stop 7,4,A01,10/26/2025 10:14,10/26/2025 10:14,-0.98,120,3,3,0,3,36,0.08,Low,29,1,0,0,42.452041,-76.482744,Clear,10/26/2025 10:00,Off-peak,10:00:00,11:00:00,A01,Proterra ZX5,36,2,TRUE,Suburban,Route A - Downtown Loop,12.3,#1f77b4,18.4,0.02,Clear
10/26/2025 10:14,10/26/2025,C,Route C - Airport Connector,C-0-20251026-03,0,Outbound,C04,C-Stop 4,4,C03,10/26/2025 10:14,10/26/2025 10:14,0.07,120,6,1,3,0,50,0,Low,30,1,0,0,42.465941,-76.450533,Clear,10/26/2025 10:00,Off-peak,10:00:00,11:00:00,C03,Proterra ZX5,50,2,TRUE,Urban,Route C - Airport Connector,25.4,#2ca02c,18.4,0.02,Clear
10/26/2025 10:15,10/26/2025,A,Route A - Downtown Loop,A-0-20251026-03,0,Outbound,A04,A-Stop 4,4,A04,10/26/2025 10:14,10/26/2025 10:15,0.48,120,5,2,1,4,36,0.11,Low,26,1,0,0,42.446486,-76.490521,Clear,10/26/2025 10:00,Off-peak,10:00:00,11:00:00,A04,Proterra ZX5,36,2,TRUE,Urban,Route A - Downtown Loop,12.3,#1f77b4,18.4,0.02,Clear
10/26/2025 10:15,10/26/2025,C,Route C - Airport Connector,C-1-20251026-03,1,Inbound,C07,C-Stop 7,4,C01,10/26/2025 10:15,10/26/2025 10:15,-0.15,120,0,0,1,1,45,0.02,Low,16,1,0,0,42.471494,-76.442008,Clear,10/26/2025 10:00,Off-peak,10:00:00,11:00:00,C01,New Flyer Xcelsior,45,2,FALSE,Suburban,Route C - Airport Connector,25.4,#2ca02c,18.4,0.02,Clear
10/26/2025 10:16,10/26/2025,B,Route B - University Express,B-1-20251026-03,1,Inbound,B07,B-Stop 7,4,B05,10/26/2025 10:15,10/26/2025 10:16,0.83,120,3,0,2,0,42,0,Low,26,1,0,0,42.462187,-76.462547,Clear,10/26/2025 10:00,Off-peak,10:00:00,11:00:00,B05,Gillig Low Floor,42,2,TRUE,Suburban,Route B - University Express,18.7,#ff7f0e,18.4,0.02,Clear
10/26/2025 10:16,10/26/2025,B,Route B - University Express,B-0-20251026-03,0,Outbound,B04,B-Stop 4,4,B03,10/26/2025 10:15,10/26/2025 10:16,1.53,120,0,0,2,1,42,0.02,Low,25,1,0,0,42.455731,-76.471031,Clear,10/26/2025 10:00,Off-peak,10:00:00,11:00:00,B03,Proterra ZX5,42,2,TRUE,Urban,Route B - University Express,18.7,#ff7f0e,18.4,0.02,Clear
10/26/2025 10:19,10/26/2025,A,Route A - Downtown Loop,A-0-20251026-03,0,Outbound,A05,A-Stop 5,5,A04,10/26/2025 10:19,10/26/2025 10:19,-0.13,120,5,3,0,7,36,0.19,Low,34,1,0,0,42.447932,-76.487781,Clear,10/26/2025 10:00,Off-peak,10:00:00,11:00:00,A04,Proterra ZX5,36,2,TRUE,Urban,Route A - Downtown Loop,12.3,#1f77b4,18.4,0.02,Clear
10/26/2025 10:20,10/26/2025,B,Route B - University Express,B-0-20251026-03,0,Outbound,B05,B-Stop 5,5,B03,10/26/2025 10:20,10/26/2025 10:20,0.11,120,0,0,1,0,42,0,Low,22,1,0,0,42.457884,-76.468452,Clear,10/26/2025 10:00,Off-peak,10:00:00,11:00:00,B03,Proterra ZX5,42,2,TRUE,Urban,Route B - University Express,18.7,#ff7f0e,18.4,0.02,Clear
10/26/2025 10:20,10/26/2025,C,Route C - Airport Connector,C-0-20251026-03,0,Outbound,C05,C-Stop 5,5,C03,10/26/2025 10:19,10/26/2025 10:20,0.97,120,4,0,2,0,50,0,Low,29,1,0,0,42.468045,-76.448504,Clear,10/26/2025 10:00,Off-peak,10:00:00,11:00:00,C03,Proterra ZX5,50,2,TRUE,Urban,Route C - Airport Connector,25.4,#2ca02c,18.4,0.02,Clear
10/26/2025 10:21,10/26/2025,A,Route A - Downtown Loop,A-1-20251026-03,1,Inbound,A06,A-Stop 6,5,A01,10/26/2025 10:20,10/26/2025 10:21,1.23,120,4,1,1,3,36,0.08,Low,25,1,0,0,42.450036,-76.485217,Clear,10/26/2025 10:00,Off-peak,10:00:00,11:00:00,A01,Proterra ZX5,36,2,TRUE,Urban,Route A - Downtown Loop,12.3,#1f77b4,18.4,0.02,Clear
10/26/2025 10:21,10/26/2025,B,Route B - University Express,B-1-20251026-03,1,Inbound,B06,B-Stop 6,5,B05,10/26/2025 10:21,10/26/2025 10:21,0.66,120,2,0,1,0,42,0,Low,32,1,0,0,42.460045,-76.46453,Clear,10/26/2025 10:00,Off-peak,10:00:00,11:00:00,B05,Gillig Low Floor,42,2,TRUE,Urban,Route B - University Express,18.7,#ff7f0e,18.4,0.02,Clear
10/26/2025 10:22,10/26/2025,C,Route C - Airport Connector,C-1-20251026-03,1,Inbound,C06,C-Stop 6,5,C01,10/26/2025 10:21,10/26/2025 10:22,1.53,120,3,2,1,2,45,0.04,Low,19,1,0,0,42.470372,-76.444741,Clear,10/26/2025 10:00,Off-peak,10:00:00,11:00:00,C01,New Flyer Xcelsior,45,2,FALSE,Urban,Route C - Airport Connector,25.4,#2ca02c,18.4,0.02,Clear
10/26/2025 10:24,10/26/2025,C,Route C - Airport Connector,C-0-20251026-03,0,Outbound,C06,C-Stop 6,6,C03,10/26/2025 10:24,10/26/2025 10:24,-0.63,120,0,0,2,0,50,0,Low,15,1,0,0,42.469964,-76.445269,Clear,10/26/2025 10:00,Off-peak,10:00:00,11:00:00,C03,Proterra ZX5,50,2,TRUE,Urban,Route C - Airport Connector,25.4,#2ca02c,18.4,0.02,Clear
10/26/2025 10:24,10/26/2025,A,Route A - Downtown Loop,A-0-20251026-03,0,Outbound,A06,A-Stop 6,6,A04,10/26/2025 10:25,10/26/2025 10:24,-0.14,120,4,1,0,8,36,0.22,Low,19,1,1,0,42.449974,-76.485329,Clear,10/26/2025 10:00,Off-peak,10:00:00,11:00:00,A04,Proterra ZX5,36,2,TRUE,Urban,Route A - Downtown Loop,12.3,#1f77b4,18.4,0.02,Clear
10/26/2025 10:25,10/26/2025,B,Route B - University Express,B-1-20251026-03,1,Inbound,B05,B-Stop 5,6,B05,10/26/2025 10:25,10/26/2025 10:25,-0.06,120,2,2,1,1,42,0.02,Low,20,1,0,0,42.458041,-76.468059,Clear,10/26/2025 10:00,Off-peak,10:00:00,11:00:00,B05,Gillig Low Floor,42,2,TRUE,Urban,Route B - University Express,18.7,#ff7f0e,18.4,0.02,Clear
10/26/2025 10:26,10/26/2025,C,Route C - Airport Connector,C-1-20251026-03,1,Inbound,C05,C-Stop 5,6,C01,10/26/2025 10:25,10/26/2025 10:26,0.15,120,2,1,3,0,45,0,Low,17,1,0,0,42.468196,-76.448383,Clear,10/26/2025 10:00,Off-peak,10:00:00,11:00:00,C01,New Flyer Xcelsior,45,2,FALSE,Urban,Route C - Airport Connector,25.4,#2ca02c,18.4,0.02,Clear
10/26/2025 10:26,10/26/2025,B,Route B - University Express,B-0-20251026-03,0,Outbound,B06,B-Stop 6,6,B03,10/26/2025 10:25,10/26/2025 10:26,1.59,120,0,0,2,0,42,0,Low,21,1,0,0,42.459555,-76.464416,Clear,10/26/2025 10:00,Off-peak,10:00:00,11:00:00,B03,Proterra ZX5,42,2,TRUE,Urban,Route B - University Express,18.7,#ff7f0e,18.4,0.02,Clear
10/26/2025 10:27,10/26/2025,A,Route A - Downtown Loop,A-1-20251026-03,1,Inbound,A05,A-Stop 5,6,A01,10/26/2025 10:25,10/26/2025 10:27,1.89,120,5,3,0,6,36,0.17,Low,20,1,0,0,42.447874,-76.488037,Clear,10/26/2025 10:00,Off-peak,10:00:00,11:00:00,A01,Proterra ZX5,36,2,TRUE,Urban,Route A - Downtown Loop,12.3,#1f77b4,18.4,0.02,Clear
10/26/2025 10:28,10/26/2025,C,Route C - Airport Connector,C-0-20251026-03,0,Outbound,C07,C-Stop 7,7,C03,10/26/2025 10:29,10/26/2025 10:28,-0.91,120,3,0,3,0,50,0,Low,21,1,0,0,42.471778,-76.441816,Clear,10/26/2025 10:00,Off-peak,10:00:00,11:00:00,C03,Proterra ZX5,50,2,TRUE,Suburban,Route C - Airport Connector,25.4,#2ca02c,18.4,0.02,Clear
10/26/2025 10:29,10/26/2025,B,Route B - University Express,B-1-20251026-03,1,Inbound,B04,B-Stop 4,7,B05,10/26/2025 10:30,10/26/2025 10:29,-0.83,120,0,0,1,0,42,0,Low,28,1,1,0,42.455186,-76.470569,Clear,10/26/2025 10:00,Off-peak,10:00:00,11:00:00,B05,Gillig Low Floor,42,2,TRUE,Urban,Route B - University Express,18.7,#ff7f0e,18.4,0.02,Clear
10/26/2025 10:30,10/26/2025,B,Route B - University Express,B-0-20251026-03,0,Outbound,B07,B-Stop 7,7,B03,10/26/2025 10:30,10/26/2025 10:30,-0.03,120,2,2,2,0,42,0,Low,15,1,0,0,42.462016,-76.462015,Clear,10/26/2025 10:00,Off-peak,10:00:00,11:00:00,B03,Proterra ZX5,42,2,TRUE,Suburban,Route B - University Express,18.7,#ff7f0e,18.4,0.02,Clear
10/26/2025 10:31,10/26/2025,A,Route A - Downtown Loop,A-0-20251026-03,0,Outbound,A07,A-Stop 7,7,A04,10/26/2025 10:30,10/26/2025 10:31,0.91,120,5,2,2,8,36,0.22,Low,17,1,0,0,42.452272,-76.482498,Clear,10/26/2025 10:00,Off-peak,10:00:00,11:00:00,A04,Proterra ZX5,36,2,TRUE,Suburban,Route A - Downtown Loop,12.3,#1f77b4,18.4,0.02,Clear
10/26/2025 10:31,10/26/2025,C,Route C - Airport Connector,C-1-20251026-03,1,Inbound,C04,C-Stop 4,7,C01,10/26/2025 10:30,10/26/2025 10:31,0.74,120,3,3,0,3,45,0.07,Low,22,1,0,0,42.465847,-76.451217,Clear,10/26/2025 10:00,Off-peak,10:00:00,11:00:00,C01,New Flyer Xcelsior,45,2,FALSE,Urban,Route C - Airport Connector,25.4,#2ca02c,18.4,0.02,Clear
10/26/2025 10:31,10/26/2025,A,Route A - Downtown Loop,A-1-20251026-03,1,Inbound,A04,A-Stop 4,7,A01,10/26/2025 10:30,10/26/2025 10:31,1.05,120,1,1,1,6,36,0.17,Low,40,1,0,0,42.446503,-76.490655,Clear,10/26/2025 10:00,Off-peak,10:00:00,11:00:00,A01,Proterra ZX5,36,2,TRUE,Urban,Route A - Downtown Loop,12.3,#1f77b4,18.4,0.02,Clear
10/26/2025 10:34,10/26/2025,B,Route B - University Express,B-0-20251026-03,0,Outbound,B08,B-Stop 8,8,B03,10/26/2025 10:35,10/26/2025 10:34,-1,120,3,1,0,1,42,0.02,Low,15,1,0,0,42.464442,-76.459513,Clear,10/26/2025 10:00,Off-peak,10:00:00,11:00:00,B03,Proterra ZX5,42,2,TRUE,Suburban,Route B - University Express,18.7,#ff7f0e,18.4,0.02,Clear
10/26/2025 10:34,10/26/2025,C,Route C - Airport Connector,C-0-20251026-03,0,Outbound,C08,C-Stop 8,8,C03,10/26/2025 10:34,10/26/2025 10:34,0.22,120,2,2,2,0,50,0,Low,20,1,0,0,42.474395,-76.438482,Clear,10/26/2025 10:00,Off-peak,10:00:00,11:00:00,C03,Proterra ZX5,50,2,TRUE,Suburban,Route C - Airport Connector,25.4,#2ca02c,18.4,0.02,Clear
10/26/2025 10:35,10/26/2025,C,Route C - Airport Connector,C-1-20251026-03,1,Inbound,C03,C-Stop 3,8,C01,10/26/2025 10:35,10/26/2025 10:35,-0.29,120,4,0,1,2,45,0.04,Low,29,1,0,0,42.463233,-76.45463,Clear,10/26/2025 10:00,Off-peak,10:00:00,11:00:00,C01,New Flyer Xcelsior,45,2,FALSE,Urban,Route C - Airport Connector,25.4,#2ca02c,18.4,0.02,Clear
10/26/2025 10:36,10/26/2025,B,Route B - University Express,B-1-20251026-03,1,Inbound,B03,B-Stop 3,8,B05,10/26/2025 10:35,10/26/2025 10:36,1.02,120,1,1,2,0,42,0,Low,29,1,0,0,42.45379,-76.473872,Clear,10/26/2025 10:00,Off-peak,10:00:00,11:00:00,B05,Gillig Low Floor,42,2,TRUE,Urban,Route B - University Express,18.7,#ff7f0e,18.4,0.02,Clear
10/26/2025 10:37,10/26/2025,A,Route A - Downtown Loop,A-0-20251026-03,0,Outbound,A08,A-Stop 8,8,A04,10/26/2025 10:35,10/26/2025 10:37,1.21,120,1,1,2,7,36,0.19,Low,19,1,0,0,42.453445,-76.47907,Clear,10/26/2025 10:00,Off-peak,10:00:00,11:00:00,A04,Proterra ZX5,36,2,TRUE,Suburban,Route A - Downtown Loop,12.3,#1f77b4,18.4,0.02,Clear
10/26/2025 10:37,10/26/2025,A,Route A - Downtown Loop,A-1-20251026-03,1,Inbound,A03,A-Stop 3,8,A01,10/26/2025 10:36,10/26/2025 10:37,0.97,120,4,1,2,5,36,0.14,Low,20,1,0,0,42.44396,-76.494292,Clear,10/26/2025 10:00,Off-peak,10:00:00,11:00:00,A01,Proterra ZX5,36,2,TRUE,Urban,Route A - Downtown Loop,12.3,#1f77b4,18.4,0.02,Clear
10/26/2025 10:39,10/26/2025,C,Route C - Airport Connector,C-1-20251026-03,1,Inbound,C02,C-Stop 2,9,C01,10/26/2025 10:40,10/26/2025 10:39,-0.67,120,0,0,2,0,45,0,Low,29,1,0,0,42.462187,-76.456842,Clear,10/26/2025 10:00,Off-peak,10:00:00,11:00:00,C01,New Flyer Xcelsior,45,2,FALSE,Urban,Route C - Airport Connector,25.4,#2ca02c,18.4,0.02,Clear
10/26/2025 10:40,10/26/2025,B,Route B - University Express,B-0-20251026-03,0,Outbound,B09,B-Stop 9,9,B03,10/26/2025 10:40,10/26/2025 10:40,0.18,120,1,1,1,1,42,0.02,Low,17,1,0,0,42.46596,-76.456499,Clear,10/26/2025 10:00,Off-peak,10:00:00,11:00:00,B03,Proterra ZX5,42,2,TRUE,Suburban,Route B - University Express,18.7,#ff7f0e,18.4,0.02,Clear
10/26/2025 10:40,10/26/2025,C,Route C - Airport Connector,C-0-20251026-03,0,Outbound,C09,C-Stop 9,9,C03,10/26/2025 10:39,10/26/2025 10:40,0.76,120,3,0,1,0,50,0,Low,26,1,0,0,42.475937,-76.435536,Clear,10/26/2025 10:00,Off-peak,10:00:00,11:00:00,C03,Proterra ZX5,50,2,TRUE,Suburban,Route C - Airport Connector,25.4,#2ca02c,18.4,0.02,Clear
10/26/2025 10:40,10/26/2025,A,Route A - Downtown Loop,A-1-20251026-03,1,Inbound,A02,A-Stop 2,9,A01,10/26/2025 10:40,10/26/2025 10:40,0.23,120,5,3,1,7,36,0.19,Low,35,1,0,0,42.44208,-76.496927,Clear,10/26/2025 10:00,Off-peak,10:00:00,11:00:00,A01,Proterra ZX5,36,2,TRUE,Urban,Route A - Downtown Loop,12.3,#1f77b4,18.4,0.02,Clear
10/26/2025 10:41,10/26/2025,B,Route B - University Express,B-1-20251026-03,1,Inbound,B02,B-Stop 2,9,B05,10/26/2025 10:41,10/26/2025 10:41,-0.19,120,3,0,2,0,42,0,Low,36,1,0,0,42.451771,-76.477446,Clear,10/26/2025 10:00,Off-peak,10:00:00,11:00:00,B05,Gillig Low Floor,42,2,TRUE,Urban,Route B - University Express,18.7,#ff7f0e,18.4,0.02,Clear
10/26/2025 10:41,10/26/2025,A,Route A - Downtown Loop,A-0-20251026-03,0,Outbound,A09,A-Stop 9,9,A04,10/26/2025 10:40,10/26/2025 10:41,0.99,120,0,0,2,5,36,0.14,Low,21,1,0,0,42.455511,-76.476322,Clear,10/26/2025 10:00,Off-peak,10:00:00,11:00:00,A04,Proterra ZX5,36,2,TRUE,Suburban,Route A - Downtown Loop,12.3,#1f77b4,18.4,0.02,Clear
10/26/2025 10:44,10/26/2025,A,Route A - Downtown Loop,A-1-20251026-03,1,Inbound,A01,A-Stop 1,10,A01,10/26/2025 10:44,10/26/2025 10:44,-0.51,120,4,1,2,6,36,0.17,Low,34,1,0,0,42.439929,-76.499946,Clear,10/26/2025 10:00,Off-peak,10:00:00,11:00:00,A01,Proterra ZX5,36,2,TRUE,Urban,Route A - Downtown Loop,12.3,#1f77b4,18.4,0.02,Clear
10/26/2025 10:44,10/26/2025,C,Route C - Airport Connector,C-0-20251026-03,0,Outbound,C10,C-Stop 10,10,C03,10/26/2025 10:45,10/26/2025 10:44,-0.5,120,1,1,1,0,50,0,Low,25,1,0,1,42.477907,-76.432394,Clear,10/26/2025 10:00,Off-peak,10:00:00,11:00:00,C03,Proterra ZX5,50,2,TRUE,Suburban,Route C - Airport Connector,25.4,#2ca02c,18.4,0.02,Clear
10/26/2025 10:44,10/26/2025,C,Route C - Airport Connector,C-1-20251026-03,1,Inbound,C01,C-Stop 1,10,C01,10/26/2025 10:44,10/26/2025 10:44,0.47,120,1,0,2,0,45,0,Low,15,1,0,0,42.459871,-76.459822,Clear,10/26/2025 10:00,Off-peak,10:00:00,11:00:00,C01,New Flyer Xcelsior,45,2,FALSE,Urban,Route C - Airport Connector,25.4,#2ca02c,18.4,0.02,Clear
10/26/2025 10:45,10/26/2025,B,Route B - University Express,B-0-20251026-03,0,Outbound,B10,B-Stop 10,10,B03,10/26/2025 10:45,10/26/2025 10:45,0.15,120,6,3,2,2,42,0.05,Low,24,1,0,1,42.467646,-76.453027,Clear,10/26/2025 10:00,Off-peak,10:00:00,11:00:00,B03,Proterra ZX5,42,2,TRUE,Suburban,Route B - University Express,18.7,#ff7f0e,18.4,0.02,Clear
10/26/2025 10:46,10/26/2025,A,Route A - Downtown Loop,A-0-20251026-03,0,Outbound,A10,A-Stop 10,10,A04,10/26/2025 10:45,10/26/2025 10:46,0.83,120,2,2,1,6,36,0.17,Low,29,1,0,0,42.457584,-76.473617,Clear,10/26/2025 10:00,Off-peak,10:00:00,11:00:00,A04,Proterra ZX5,36,2,TRUE,Suburban,Route A - Downtown Loop,12.3,#1f77b4,18.4,0.02,Clear
10/26/2025 10:46,10/26/2025,B,Route B - University Express,B-1-20251026-03,1,Inbound,B01,B-Stop 1,10,B05,10/26/2025 10:46,10/26/2025 10:46,0.22,120,3,1,1,0,42,0,Low,24,1,0,0,42.450448,-76.480304,Clear,10/26/2025 10:00,Off-peak,10:00:00,11:00:00,B05,Gillig Low Floor,42,2,TRUE,Urban,Route B - University Express,18.7,#ff7f0e,18.4,0.02,Clear
10/26/2025 12:00,10/26/2025,A,Route A - Downtown Loop,A-0-20251026-04,0,Outbound,A01,A-Stop 1,1,A05,10/26/2025 12:00,10/26/2025 12:00,0.14,120,1,0,0,0,50,0,Low,15,0,0,0,42.440403,-76.499854,Clear,10/26/2025 12:00,Off-peak,12:00:00,13:00:00,A05,Proterra ZX5,50,3,TRUE,Urban,Route A - Downtown Loop,12.3,#1f77b4,20.7,0,Clear
10/26/2025 12:00,10/26/2025,B,Route B - University Express,B-1-20251026-04,1,Inbound,B10,B-Stop 10,1,B04,10/26/2025 12:00,10/26/2025 12:00,0.16,120,6,1,0,1,36,0.03,Low,24,1,0,0,42.467459,-76.453209,Clear,10/26/2025 12:00,Off-peak,12:00:00,13:00:00,B04,Proterra ZX5,36,3,TRUE,Suburban,Route B - University Express,18.7,#ff7f0e,20.7,0,Clear
10/26/2025 12:00,10/26/2025,C,Route C - Airport Connector,C-1-20251026-04,1,Inbound,C10,C-Stop 10,1,C03,10/26/2025 12:00,10/26/2025 12:00,0.49,120,3,0,0,0,50,0,Low,15,0,0,0,42.478116,-76.432943,Clear,10/26/2025 12:00,Off-peak,12:00:00,13:00:00,C03,Proterra ZX5,50,2,TRUE,Suburban,Route C - Airport Connector,25.4,#2ca02c,20.7,0,Clear
10/26/2025 12:00,10/26/2025,C,Route C - Airport Connector,C-0-20251026-04,0,Outbound,C01,C-Stop 1,1,C01,10/26/2025 12:00,10/26/2025 12:00,0.5,120,1,0,0,0,45,0,Low,15,1,0,0,42.460388,-76.459839,Clear,10/26/2025 12:00,Off-peak,12:00:00,13:00:00,C01,New Flyer Xcelsior,45,2,FALSE,Urban,Route C - Airport Connector,25.4,#2ca02c,20.7,0,Clear
10/26/2025 12:00,10/26/2025,A,Route A - Downtown Loop,A-1-20251026-04,1,Inbound,A10,A-Stop 10,1,A05,10/26/2025 12:00,10/26/2025 12:00,0.52,120,1,1,0,1,50,0.02,Low,22,1,0,0,42.45815,-76.473319,Clear,10/26/2025 12:00,Off-peak,12:00:00,13:00:00,A05,Proterra ZX5,50,3,TRUE,Suburban,Route A - Downtown Loop,12.3,#1f77b4,20.7,0,Clear
10/26/2025 12:00,10/26/2025,B,Route B - University Express,B-0-20251026-04,0,Outbound,B01,B-Stop 1,1,B03,10/26/2025 12:00,10/26/2025 12:00,0.67,120,2,2,0,2,42,0.05,Low,24,1,0,0,42.451027,-76.480201,Clear,10/26/2025 12:00,Off-peak,12:00:00,13:00:00,B03,Proterra ZX5,42,2,TRUE,Urban,Route B - University Express,18.7,#ff7f0e,20.7,0,Clear
10/26/2025 12:04,10/26/2025,C,Route C - Airport Connector,C-0-20251026-04,0,Outbound,C02,C-Stop 2,2,C01,10/26/2025 12:04,10/26/2025 12:04,-0.13,120,2,1,1,0,45,0,Low,25,1,0,0,42.461786,-76.456964,Clear,10/26/2025 12:00,Off-peak,12:00:00,13:00:00,C01,New Flyer Xcelsior,45,2,FALSE,Urban,Route C - Airport Connector,25.4,#2ca02c,20.7,0,Clear
10/26/2025 12:04,10/26/2025,B,Route B - University Express,B-1-20251026-04,1,Inbound,B09,B-Stop 9,2,B04,10/26/2025 12:05,10/26/2025 12:04,-0.23,120,1,1,0,2,36,0.06,Low,15,1,0,0,42.466197,-76.456974,Clear,10/26/2025 12:00,Off-peak,12:00:00,13:00:00,B04,Proterra ZX5,36,3,TRUE,Suburban,Route B - University Express,18.7,#ff7f0e,20.7,0,Clear
10/26/2025 12:05,10/26/2025,B,Route B - University Express,B-0-20251026-04,0,Outbound,B02,B-Stop 2,2,B03,10/26/2025 12:04,10/26/2025 12:05,0.62,120,1,1,0,3,42,0.07,Low,27,1,1,0,42.452121,-76.47749,Clear,10/26/2025 12:00,Off-peak,12:00:00,13:00:00,B03,Proterra ZX5,42,2,TRUE,Urban,Route B - University Express,18.7,#ff7f0e,20.7,0,Clear
10/26/2025 12:05,10/26/2025,C,Route C - Airport Connector,C-1-20251026-04,1,Inbound,C09,C-Stop 9,2,C03,10/26/2025 12:04,10/26/2025 12:05,0.7,120,5,1,1,0,50,0,Low,24,1,0,0,42.475803,-76.436209,Clear,10/26/2025 12:00,Off-peak,12:00:00,13:00:00,C03,Proterra ZX5,50,2,TRUE,Suburban,Route C - Airport Connector,25.4,#2ca02c,20.7,0,Clear
10/26/2025 12:06,10/26/2025,A,Route A - Downtown Loop,A-0-20251026-04,0,Outbound,A02,A-Stop 2,2,A05,10/26/2025 12:05,10/26/2025 12:06,0.63,120,3,0,2,0,50,0,Low,28,1,0,0,42.442486,-76.496406,Clear,10/26/2025 12:00,Off-peak,12:00:00,13:00:00,A05,Proterra ZX5,50,3,TRUE,Urban,Route A - Downtown Loop,12.3,#1f77b4,20.7,0,Clear
10/26/2025 12:06,10/26/2025,A,Route A - Downtown Loop,A-1-20251026-04,1,Inbound,A09,A-Stop 9,2,A05,10/26/2025 12:05,10/26/2025 12:06,1.01,120,1,1,1,1,50,0.02,Low,21,1,0,0,42.455642,-76.47603,Clear,10/26/2025 12:00,Off-peak,12:00:00,13:00:00,A05,Proterra ZX5,50,3,TRUE,Suburban,Route A - Downtown Loop,12.3,#1f77b4,20.7,0,Clear
10/26/2025 12:08,10/26/2025,B,Route B - University Express,B-1-20251026-04,1,Inbound,B08,B-Stop 8,3,B04,10/26/2025 12:09,10/26/2025 12:08,-0.88,120,2,2,2,2,36,0.06,Low,39,1,0,0,42.464464,-76.459552,Clear,10/26/2025 12:00,Off-peak,12:00:00,13:00:00,B04,Proterra ZX5,36,3,TRUE,Suburban,Route B - University Express,18.7,#ff7f0e,20.7,0,Clear
10/26/2025 12:09,10/26/2025,B,Route B - University Express,B-0-20251026-04,0,Outbound,B03,B-Stop 3,3,B03,10/26/2025 12:10,10/26/2025 12:09,-0.91,120,1,1,0,4,42,0.1,Low,15,1,0,0,42.453775,-76.473828,Clear,10/26/2025 12:00,Off-peak,12:00:00,13:00:00,B03,Proterra ZX5,42,2,TRUE,Urban,Route B - University Express,18.7,#ff7f0e,20.7,0,Clear
10/26/2025 12:09,10/26/2025,C,Route C - Airport Connector,C-0-20251026-04,0,Outbound,C03,C-Stop 3,3,C01,10/26/2025 12:09,10/26/2025 12:09,-0.31,120,2,2,2,0,45,0,Low,27,1,0,0,42.463736,-76.453955,Clear,10/26/2025 12:00,Off-peak,12:00:00,13:00:00,C01,New Flyer Xcelsior,45,2,FALSE,Urban,Route C - Airport Connector,25.4,#2ca02c,20.7,0,Clear
10/26/2025 12:09,10/26/2025,C,Route C - Airport Connector,C-1-20251026-04,1,Inbound,C08,C-Stop 8,3,C03,10/26/2025 12:08,10/26/2025 12:09,0.92,120,6,1,0,1,50,0.02,Low,24,1,0,0,42.474272,-76.438522,Clear,10/26/2025 12:00,Off-peak,12:00:00,13:00:00,C03,Proterra ZX5,50,2,TRUE,Suburban,Route C - Airport Connector,25.4,#2ca02c,20.7,0,Clear
10/26/2025 12:10,10/26/2025,A,Route A - Downtown Loop,A-0-20251026-04,0,Outbound,A03,A-Stop 3,3,A05,10/26/2025 12:10,10/26/2025 12:10,-0.42,120,2,2,3,0,50,0,Low,24,1,0,0,42.443913,-76.493933,Clear,10/26/2025 12:00,Off-peak,12:00:00,13:00:00,A05,Proterra ZX5,50,3,TRUE,Urban,Route A - Downtown Loop,12.3,#1f77b4,20.7,0,Clear
10/26/2025 12:11,10/26/2025,A,Route A - Downtown Loop,A-1-20251026-04,1,Inbound,A08,A-Stop 8,3,A05,10/26/2025 12:10,10/26/2025 12:11,0.36,120,2,2,1,2,50,0.04,Low,23,1,0,0,42.453492,-76.479076,Clear,10/26/2025 12:00,Off-peak,12:00:00,13:00:00,A05,Proterra ZX5,50,3,TRUE,Suburban,Route A - Downtown Loop,12.3,#1f77b4,20.7,0,Clear
10/26/2025 12:13,10/26/2025,C,Route C - Airport Connector,C-1-20251026-04,1,Inbound,C07,C-Stop 7,4,C03,10/26/2025 12:13,10/26/2025 12:13,-0.28,120,0,0,2,0,50,0,Low,31,1,0,0,42.471603,-76.441449,Clear,10/26/2025 12:00,Off-peak,12:00:00,13:00:00,C03,Proterra ZX5,50,2,TRUE,Suburban,Route C - Airport Connector,25.4,#2ca02c,20.7,0,Clear
10/26/2025 12:14,10/26/2025,C,Route C - Airport Connector,C-0-20251026-04,0,Outbound,C04,C-Stop 4,4,C01,10/26/2025 12:14,10/26/2025 12:14,-0.44,120,2,0,3,0,45,0,Low,36,1,0,0,42.465992,-76.450511,Clear,10/26/2025 12:00,Off-peak,12:00:00,13:00:00,C01,New Flyer Xcelsior,45,2,FALSE,Urban,Route C - Airport Connector,25.4,#2ca02c,20.7,0,Clear
10/26/2025 12:15,10/26/2025,B,Route B - University Express,B-0-20251026-04,0,Outbound,B04,B-Stop 4,4,B03,10/26/2025 12:15,10/26/2025 12:15,-0.13,120,4,2,3,3,42,0.07,Low,22,1,0,0,42.455295,-76.470873,Clear,10/26/2025 12:00,Off-peak,12:00:00,13:00:00,B03,Proterra ZX5,42,2,TRUE,Urban,Route B - University Express,18.7,#ff7f0e,20.7,0,Clear
10/26/2025 12:15,10/26/2025,A,Route A - Downtown Loop,A-1-20251026-04,1,Inbound,A07,A-Stop 7,4,A05,10/26/2025 12:15,10/26/2025 12:15,-0.02,120,4,1,1,2,50,0.04,Low,16,1,0,0,42.452269,-76.482572,Clear,10/26/2025 12:00,Off-peak,12:00:00,13:00:00,A05,Proterra ZX5,50,3,TRUE,Suburban,Route A - Downtown Loop,12.3,#1f77b4,20.7,0,Clear
10/26/2025 12:16,10/26/2025,B,Route B - University Express,B-1-20251026-04,1,Inbound,B07,B-Stop 7,4,B04,10/26/2025 12:14,10/26/2025 12:16,1.82,120,5,2,2,2,36,0.06,Low,26,1,0,0,42.4617,-76.462286,Clear,10/26/2025 12:00,Off-peak,12:00:00,13:00:00,B04,Proterra ZX5,36,3,TRUE,Suburban,Route B - University Express,18.7,#ff7f0e,20.7,0,Clear
10/26/2025 12:16,10/26/2025,A,Route A - Downtown Loop,A-0-20251026-04,0,Outbound,A04,A-Stop 4,4,A05,10/26/2025 12:15,10/26/2025 12:16,1.16,120,1,0,2,0,50,0,Low,35,1,0,0,42.446591,-76.49062,Clear,10/26/2025 12:00,Off-peak,12:00:00,13:00:00,A05,Proterra ZX5,50,3,TRUE,Urban,Route A - Downtown Loop,12.3,#1f77b4,20.7,0,Clear
10/26/2025 12:18,10/26/2025,C,Route C - Airport Connector,C-1-20251026-04,1,Inbound,C06,C-Stop 6,5,C03,10/26/2025 12:17,10/26/2025 12:18,0.63,120,0,0,3,0,50,0,Low,29,1,0,0,42.469988,-76.445219,Clear,10/26/2025 12:00,Off-peak,12:00:00,13:00:00,C03,Proterra ZX5,50,2,TRUE,Urban,Route C - Airport Connector,25.4,#2ca02c,20.7,0,Clear
10/26/2025 12:18,10/26/2025,B,Route B - University Express,B-1-20251026-04,1,Inbound,B06,B-Stop 6,5,B04,10/26/2025 12:19,10/26/2025 12:18,-0.34,120,1,1,1,2,36,0.06,Low,37,1,0,0,42.459471,-76.464549,Clear,10/26/2025 12:00,Off-peak,12:00:00,13:00:00,B04,Proterra ZX5,36,3,TRUE,Urban,Route B - University Express,18.7,#ff7f0e,20.7,0,Clear
10/26/2025 12:19,10/26/2025,B,Route B - University Express,B-0-20251026-04,0,Outbound,B05,B-Stop 5,5,B03,10/26/2025 12:20,10/26/2025 12:19,-0.23,120,2,1,2,2,42,0.05,Low,29,1,0,1,42.457746,-76.468008,Clear,10/26/2025 12:00,Off-peak,12:00:00,13:00:00,B03,Proterra ZX5,42,2,TRUE,Urban,Route B - University Express,18.7,#ff7f0e,20.7,0,Clear
10/26/2025 12:20,10/26/2025,C,Route C - Airport Connector,C-0-20251026-04,0,Outbound,C05,C-Stop 5,5,C01,10/26/2025 12:19,10/26/2025 12:20,0.42,120,0,0,1,0,45,0,Low,26,1,0,0,42.468091,-76.44814,Clear,10/26/2025 12:00,Off-peak,12:00:00,13:00:00,C01,New Flyer Xcelsior,45,2,FALSE,Urban,Route C - Airport Connector,25.4,#2ca02c,20.7,0,Clear
10/26/2025 12:20,10/26/2025,A,Route A - Downtown Loop,A-0-20251026-04,0,Outbound,A05,A-Stop 5,5,A05,10/26/2025 12:20,10/26/2025 12:20,0.11,120,0,0,2,0,50,0,Low,32,1,0,0,42.447928,-76.487713,Clear,10/26/2025 12:00,Off-peak,12:00:00,13:00:00,A05,Proterra ZX5,50,3,TRUE,Urban,Route A - Downtown Loop,12.3,#1f77b4,20.7,0,Clear
10/26/2025 12:21,10/26/2025,A,Route A - Downtown Loop,A-1-20251026-04,1,Inbound,A06,A-Stop 6,5,A05,10/26/2025 12:20,10/26/2025 12:21,0.83,120,2,0,2,0,50,0,Low,26,1,0,0,42.449808,-76.484845,Clear,10/26/2025 12:00,Off-peak,12:00:00,13:00:00,A05,Proterra ZX5,50,3,TRUE,Urban,Route A - Downtown Loop,12.3,#1f77b4,20.7,0,Clear
10/26/2025 12:23,10/26/2025,B,Route B - University Express,B-1-20251026-04,1,Inbound,B05,B-Stop 5,6,B04,10/26/2025 12:23,10/26/2025 12:23,-0.53,120,1,1,2,1,36,0.03,Low,20,1,0,0,42.457374,-76.467792,Clear,10/26/2025 12:00,Off-peak,12:00:00,13:00:00,B04,Proterra ZX5,36,3,TRUE,Urban,Route B - University Express,18.7,#ff7f0e,20.7,0,Clear
10/26/2025 12:23,10/26/2025,C,Route C - Airport Connector,C-1-20251026-04,1,Inbound,C05,C-Stop 5,6,C03,10/26/2025 12:23,10/26/2025 12:23,0.51,120,5,1,0,1,50,0.02,Low,25,1,0,0,42.468012,-76.448789,Clear,10/26/2025 12:00,Off-peak,12:00:00,13:00:00,C03,Proterra ZX5,50,2,TRUE,Urban,Route C - Airport Connector,25.4,#2ca02c,20.7,0,Clear
10/26/2025 12:25,10/26/2025,C,Route C - Airport Connector,C-0-20251026-04,0,Outbound,C06,C-Stop 6,6,C01,10/26/2025 12:25,10/26/2025 12:25,0.37,120,2,2,1,1,45,0.02,Low,26,1,0,0,42.470106,-76.445196,Clear,10/26/2025 12:00,Off-peak,12:00:00,13:00:00,C01,New Flyer Xcelsior,45,2,FALSE,Urban,Route C - Airport Connector,25.4,#2ca02c,20.7,0,Clear
10/26/2025 12:25,10/26/2025,A,Route A - Downtown Loop,A-1-20251026-04,1,Inbound,A05,A-Stop 5,6,A05,10/26/2025 12:24,10/26/2025 12:25,0.87,120,4,2,0,2,50,0.04,Low,32,1,0,0,42.447654,-76.487939,Clear,10/26/2025 12:00,Off-peak,12:00:00,13:00:00,A05,Proterra ZX5,50,3,TRUE,Urban,Route A - Downtown Loop,12.3,#1f77b4,20.7,0,Clear
10/26/2025 12:25,10/26/2025,B,Route B - University Express,B-0-20251026-04,0,Outbound,B06,B-Stop 6,6,B03,10/26/2025 12:25,10/26/2025 12:25,0.76,120,2,1,1,2,42,0.05,Low,24,1,0,0,42.459663,-76.464621,Clear,10/26/2025 12:00,Off-peak,12:00:00,13:00:00,B03,Proterra ZX5,42,2,TRUE,Urban,Route B - University Express,18.7,#ff7f0e,20.7,0,Clear
10/26/2025 12:26,10/26/2025,A,Route A - Downtown Loop,A-0-20251026-04,0,Outbound,A06,A-Stop 6,6,A05,10/26/2025 12:26,10/26/2025 12:26,0.4,120,2,0,4,0,50,0,Low,28,1,0,0,42.449672,-76.485374,Clear,10/26/2025 12:00,Off-peak,12:00:00,13:00:00,A05,Proterra ZX5,50,3,TRUE,Urban,Route A - Downtown Loop,12.3,#1f77b4,20.7,0,Clear
10/26/2025 12:28,10/26/2025,B,Route B - University Express,B-1-20251026-04,1,Inbound,B04,B-Stop 4,7,B04,10/26/2025 12:28,10/26/2025 12:28,-0.47,120,3,2,1,2,36,0.06,Low,25,1,0,0,42.455424,-76.470735,Clear,10/26/2025 12:00,Off-peak,12:00:00,13:00:00,B04,Proterra ZX5,36,3,TRUE,Urban,Route B - University Express,18.7,#ff7f0e,20.7,0,Clear
10/26/2025 12:28,10/26/2025,C,Route C - Airport Connector,C-1-20251026-04,1,Inbound,C04,C-Stop 4,7,C03,10/26/2025 12:28,10/26/2025 12:28,0.07,120,3,0,2,0,50,0,Low,17,1,0,0,42.465696,-76.450731,Clear,10/26/2025 12:00,Off-peak,12:00:00,13:00:00,C03,Proterra ZX5,50,2,TRUE,Urban,Route C - Airport Connector,25.4,#2ca02c,20.7,0,Clear
10/26/2025 12:29,10/26/2025,C,Route C - Airport Connector,C-0-20251026-04,0,Outbound,C07,C-Stop 7,7,C01,10/26/2025 12:30,10/26/2025 12:29,-0.98,120,0,0,3,0,45,0,Low,27,1,0,0,42.471653,-76.442105,Clear,10/26/2025 12:00,Off-peak,12:00:00,13:00:00,C01,New Flyer Xcelsior,45,2,FALSE,Suburban,Route C - Airport Connector,25.4,#2ca02c,20.7,0,Clear
10/26/2025 12:29,10/26/2025,B,Route B - University Express,B-0-20251026-04,0,Outbound,B07,B-Stop 7,7,B03,10/26/2025 12:30,10/26/2025 12:29,-0.45,120,2,2,1,3,42,0.07,Low,29,1,0,0,42.461878,-76.462528,Clear,10/26/2025 12:00,Off-peak,12:00:00,13:00:00,B03,Proterra ZX5,42,2,TRUE,Suburban,Route B - University Express,18.7,#ff7f0e,20.7,0,Clear
10/26/2025 12:30,10/26/2025,A,Route A - Downtown Loop,A-1-20251026-04,1,Inbound,A04,A-Stop 4,7,A05,10/26/2025 12:29,10/26/2025 12:30,0.44,120,4,3,2,3,50,0.06,Low,26,1,0,0,42.446557,-76.490988,Clear,10/26/2025 12:00,Off-peak,12:00:00,13:00:00,A05,Proterra ZX5,50,3,TRUE,Urban,Route A - Downtown Loop,12.3,#1f77b4,20.7,0,Clear
10/26/2025 12:31,10/26/2025,A,Route A - Downtown Loop,A-0-20251026-04,0,Outbound,A07,A-Stop 7,7,A05,10/26/2025 12:31,10/26/2025 12:31,-0.42,120,6,0,3,0,50,0,Low,27,1,0,0,42.452096,-76.482609,Clear,10/26/2025 12:00,Off-peak,12:00:00,13:00:00,A05,Proterra ZX5,50,3,TRUE,Suburban,Route A - Downtown Loop,12.3,#1f77b4,20.7,0,Clear
10/26/2025 12:32,10/26/2025,B,Route B - University Express,B-1-20251026-04,1,Inbound,B03,B-Stop 3,8,B04,10/26/2025 12:33,10/26/2025 12:32,-0.16,120,4,3,3,2,36,0.06,Low,31,1,0,0,42.453772,-76.474275,Clear,10/26/2025 12:00,Off-peak,12:00:00,13:00:00,B04,Proterra ZX5,36,3,TRUE,Urban,Route B - University Express,18.7,#ff7f0e,20.7,0,Clear
10/26/2025 12:34,10/26/2025,C,Route C - Airport Connector,C-1-20251026-04,1,Inbound,C03,C-Stop 3,8,C03,10/26/2025 12:33,10/26/2025 12:34,0.67,120,5,4,5,0,50,0,Low,25,1,0,0,42.463841,-76.454013,Clear,10/26/2025 12:00,Off-peak,12:00:00,13:00:00,C03,Proterra ZX5,50,2,TRUE,Urban,Route C - Airport Connector,25.4,#2ca02c,20.7,0,Clear
10/26/2025 12:35,10/26/2025,A,Route A - Downtown Loop,A-1-20251026-04,1,Inbound,A03,A-Stop 3,8,A05,10/26/2025 12:34,10/26/2025 12:35,0.74,120,4,3,1,5,50,0.1,Low,30,1,0,0,42.443698,-76.493855,Clear,10/26/2025 12:00,Off-peak,12:00:00,13:00:00,A05,Proterra ZX5,50,3,TRUE,Urban,Route A - Downtown Loop,12.3,#1f77b4,20.7,0,Clear
10/26/2025 12:35,10/26/2025,C,Route C - Airport Connector,C-0-20251026-04,0,Outbound,C08,C-Stop 8,8,C01,10/26/2025 12:35,10/26/2025 12:35,-0.14,120,4,2,2,0,45,0,Low,25,1,0,0,42.474386,-76.438745,Clear,10/26/2025 12:00,Off-peak,12:00:00,13:00:00,C01,New Flyer Xcelsior,45,2,FALSE,Suburban,Route C - Airport Connector,25.4,#2ca02c,20.7,0,Clear
10/26/2025 12:35,10/26/2025,B,Route B - University Express,B-0-20251026-04,0,Outbound,B08,B-Stop 8,8,B03,10/26/2025 12:34,10/26/2025 12:35,0.99,120,0,0,1,2,42,0.05,Low,32,1,1,0,42.464688,-76.459704,Clear,10/26/2025 12:00,Off-peak,12:00:00,13:00:00,B03,Proterra ZX5,42,2,TRUE,Suburban,Route B - University Express,18.7,#ff7f0e,20.7,0,Clear
10/26/2025 12:38,10/26/2025,A,Route A - Downtown Loop,A-0-20251026-04,0,Outbound,A08,A-Stop 8,8,A05,10/26/2025 12:37,10/26/2025 12:38,0.62,120,1,0,2,0,50,0,Low,24,1,0,0,42.453179,-76.47918,Clear,10/26/2025 12:00,Off-peak,12:00:00,13:00:00,A05,Proterra ZX5,50,3,TRUE,Suburban,Route A - Downtown Loop,12.3,#1f77b4,20.7,0,Clear
10/26/2025 12:39,10/26/2025,B,Route B - University Express,B-1-20251026-04,1,Inbound,B02,B-Stop 2,9,B04,10/26/2025 12:38,10/26/2025 12:39,1.02,120,1,1,1,2,36,0.06,Low,34,1,0,0,42.451917,-76.477032,Clear,10/26/2025 12:00,Off-peak,12:00:00,13:00:00,B04,Proterra ZX5,36,3,TRUE,Urban,Route B - University Express,18.7,#ff7f0e,20.7,0,Clear
10/26/2025 12:40,10/26/2025,C,Route C - Airport Connector,C-0-20251026-04,0,Outbound,C09,C-Stop 9,9,C01,10/26/2025 12:40,10/26/2025 12:40,-0.38,120,0,0,3,0,45,0,Low,29,1,0,1,42.475794,-76.43624,Clear,10/26/2025 12:00,Off-peak,12:00:00,13:00:00,C01,New Flyer Xcelsior,45,2,FALSE,Suburban,Route C - Airport Connector,25.4,#2ca02c,20.7,0,Clear
10/26/2025 12:40,10/26/2025,B,Route B - University Express,B-0-20251026-04,0,Outbound,B09,B-Stop 9,9,B03,10/26/2025 12:39,10/26/2025 12:40,0.66,120,4,3,1,4,42,0.1,Low,36,1,0,0,42.466086,-76.456831,Clear,10/26/2025 12:00,Off-peak,12:00:00,13:00:00,B03,Proterra ZX5,42,2,TRUE,Suburban,Route B - University Express,18.7,#ff7f0e,20.7,0,Clear
10/26/2025 12:40,10/26/2025,C,Route C - Airport Connector,C-1-20251026-04,1,Inbound,C02,C-Stop 2,9,C03,10/26/2025 12:39,10/26/2025 12:40,1.26,120,2,1,2,0,50,0,Low,23,1,0,0,42.462029,-76.456778,Clear,10/26/2025 12:00,Off-peak,12:00:00,13:00:00,C03,Proterra ZX5,50,2,TRUE,Urban,Route C - Airport Connector,25.4,#2ca02c,20.7,0,Clear
10/26/2025 12:40,10/26/2025,A,Route A - Downtown Loop,A-1-20251026-04,1,Inbound,A02,A-Stop 2,9,A05,10/26/2025 12:39,10/26/2025 12:40,1.21,120,0,0,1,4,50,0.08,Low,22,1,0,0,42.442233,-76.496683,Clear,10/26/2025 12:00,Off-peak,12:00:00,13:00:00,A05,Proterra ZX5,50,3,TRUE,Urban,Route A - Downtown Loop,12.3,#1f77b4,20.7,0,Clear
10/26/2025 12:42,10/26/2025,A,Route A - Downtown Loop,A-0-20251026-04,0,Outbound,A09,A-Stop 9,9,A05,10/26/2025 12:42,10/26/2025 12:42,0.21,120,4,4,2,2,50,0.04,Low,20,1,0,0,42.45577,-76.475893,Clear,10/26/2025 12:00,Off-peak,12:00:00,13:00:00,A05,Proterra ZX5,50,3,TRUE,Suburban,Route A - Downtown Loop,12.3,#1f77b4,20.7,0,Clear
10/26/2025 12:43,10/26/2025,B,Route B - University Express,B-0-20251026-04,0,Outbound,B10,B-Stop 10,10,B03,10/26/2025 12:44,10/26/2025 12:43,-0.52,120,6,1,2,3,42,0.07,Low,22,1,0,0,42.467478,-76.453323,Clear,10/26/2025 12:00,Off-peak,12:00:00,13:00:00,B03,Proterra ZX5,42,2,TRUE,Suburban,Route B - University Express,18.7,#ff7f0e,20.7,0,Clear
10/26/2025 12:44,10/26/2025,C,Route C - Airport Connector,C-1-20251026-04,1,Inbound,C01,C-Stop 1,10,C03,10/26/2025 12:44,10/26/2025 12:44,0.02,120,3,1,0,1,50,0.02,Low,21,1,0,1,42.460359,-76.459661,Clear,10/26/2025 12:00,Off-peak,12:00:00,13:00:00,C03,Proterra ZX5,50,2,TRUE,Urban,Route C - Airport Connector,25.4,#2ca02c,20.7,0,Clear
10/26/2025 12:44,10/26/2025,A,Route A - Downtown Loop,A-1-20251026-04,1,Inbound,A01,A-Stop 1,10,A05,10/26/2025 12:44,10/26/2025 12:44,-0.24,120,1,1,1,4,50,0.08,Low,20,1,0,0,42.439874,-76.500142,Clear,10/26/2025 12:00,Off-peak,12:00:00,13:00:00,A05,Proterra ZX5,50,3,TRUE,Urban,Route A - Downtown Loop,12.3,#1f77b4,20.7,0,Clear
10/26/2025 12:45,10/26/2025,B,Route B - University Express,B-1-20251026-04,1,Inbound,B01,B-Stop 1,10,B04,10/26/2025 12:43,10/26/2025 12:45,1.28,120,2,2,1,3,36,0.08,Low,30,1,0,0,42.45062,-76.479588,Clear,10/26/2025 12:00,Off-peak,12:00:00,13:00:00,B04,Proterra ZX5,36,3,TRUE,Urban,Route B - University Express,18.7,#ff7f0e,20.7,0,Clear
10/26/2025 12:45,10/26/2025,C,Route C - Airport Connector,C-0-20251026-04,0,Outbound,C10,C-Stop 10,10,C01,10/26/2025 12:45,10/26/2025 12:45,0.13,120,6,0,1,0,45,0,Low,19,1,0,0,42.477803,-76.432895,Clear,10/26/2025 12:00,Off-peak,12:00:00,13:00:00,C01,New Flyer Xcelsior,45,2,FALSE,Suburban,Route C - Airport Connector,25.4,#2ca02c,20.7,0,Clear
10/26/2025 12:47,10/26/2025,A,Route A - Downtown Loop,A-0-20251026-04,0,Outbound,A10,A-Stop 10,10,A05,10/26/2025 12:46,10/26/2025 12:47,0.44,120,6,2,0,4,50,0.08,Low,25,1,0,0,42.457485,-76.473251,Clear,10/26/2025 12:00,Off-peak,12:00:00,13:00:00,A05,Proterra ZX5,50,3,TRUE,Suburban,Route A - Downtown Loop,12.3,#1f77b4,20.7,0,Clear
10/26/2025 13:59,10/26/2025,C,Route C - Airport Connector,C-1-20251026-05,1,Inbound,C10,C-Stop 10,1,C01,10/26/2025 14:00,10/26/2025 13:59,-0.49,120,0,0,0,0,45,0,Low,15,0,0,0,42.477752,-76.432434,Clear,10/26/2025 13:00,Off-peak,14:00:00,15:00:00,C01,New Flyer Xcelsior,45,2,FALSE,Suburban,Route C - Airport Connector,25.4,#2ca02c,16.2,0,Clear
10/26/2025 14:00,10/26/2025,C,Route C - Airport Connector,C-0-20251026-05,0,Outbound,C01,C-Stop 1,1,C05,10/26/2025 14:00,10/26/2025 14:00,0.26,120,1,0,1,0,36,0,Low,15,1,0,0,42.460339,-76.459942,Clear,10/26/2025 14:00,Off-peak,14:00:00,15:00:00,C05,Gillig Low Floor,36,2,FALSE,Urban,Route C - Airport Connector,25.4,#2ca02c,16.2,0,Clear
10/26/2025 14:00,10/26/2025,B,Route B - University Express,B-1-20251026-05,1,Inbound,B10,B-Stop 10,1,B05,10/26/2025 14:00,10/26/2025 14:00,0.49,120,4,1,0,1,42,0.02,Low,22,1,0,0,42.467625,-76.452906,Clear,10/26/2025 14:00,Off-peak,14:00:00,15:00:00,B05,Gillig Low Floor,42,2,TRUE,Suburban,Route B - University Express,18.7,#ff7f0e,16.2,0,Clear
10/26/2025 14:00,10/26/2025,A,Route A - Downtown Loop,A-0-20251026-05,0,Outbound,A01,A-Stop 1,1,A05,10/26/2025 14:00,10/26/2025 14:00,0.51,120,2,1,0,1,50,0.02,Low,25,1,0,0,42.439995,-76.500319,Clear,10/26/2025 14:00,Off-peak,14:00:00,15:00:00,A05,Proterra ZX5,50,3,TRUE,Urban,Route A - Downtown Loop,12.3,#1f77b4,16.2,0,Clear
10/26/2025 14:00,10/26/2025,B,Route B - University Express,B-0-20251026-05,0,Outbound,B01,B-Stop 1,1,B01,10/26/2025 14:00,10/26/2025 14:00,0.56,120,5,0,0,0,45,0,Low,15,0,0,0,42.45011,-76.479824,Clear,10/26/2025 14:00,Off-peak,14:00:00,15:00:00,B01,New Flyer Xcelsior,45,2,TRUE,Urban,Route B - University Express,18.7,#ff7f0e,16.2,0,Clear
10/26/2025 14:00,10/26/2025,A,Route A - Downtown Loop,A-1-20251026-05,1,Inbound,A10,A-Stop 10,1,A05,10/26/2025 14:00,10/26/2025 14:00,0.99,120,1,0,0,0,50,0,Low,15,0,0,0,42.458173,-76.473456,Clear,10/26/2025 14:00,Off-peak,14:00:00,15:00:00,A05,Proterra ZX5,50,3,TRUE,Suburban,Route A - Downtown Loop,12.3,#1f77b4,16.2,0,Clear
10/26/2025 14:04,10/26/2025,B,Route B - University Express,B-0-20251026-05,0,Outbound,B02,B-Stop 2,2,B01,10/26/2025 14:04,10/26/2025 14:04,-0.46,120,3,0,1,0,45,0,Low,27,1,0,0,42.451534,-76.477099,Clear,10/26/2025 14:00,Off-peak,14:00:00,15:00:00,B01,New Flyer Xcelsior,45,2,TRUE,Urban,Route B - University Express,18.7,#ff7f0e,16.2,0,Clear
10/26/2025 14:05,10/26/2025,B,Route B - University Express,B-1-20251026-05,1,Inbound,B09,B-Stop 9,2,B05,10/26/2025 14:04,10/26/2025 14:05,0.24,120,2,1,3,0,42,0,Low,26,1,0,0,42.466132,-76.456879,Clear,10/26/2025 14:00,Off-peak,14:00:00,15:00:00,B05,Gillig Low Floor,42,2,TRUE,Suburban,Route B - University Express,18.7,#ff7f0e,16.2,0,Clear
10/26/2025 14:05,10/26/2025,A,Route A - Downtown Loop,A-0-20251026-05,0,Outbound,A02,A-Stop 2,2,A05,10/26/2025 14:05,10/26/2025 14:05,-0.03,120,3,2,2,1,50,0.02,Low,17,1,0,0,42.441859,-76.496661,Clear,10/26/2025 14:00,Off-peak,14:00:00,15:00:00,A05,Proterra ZX5,50,3,TRUE,Urban,Route A - Downtown Loop,12.3,#1f77b4,16.2,0,Clear
10/26/2025 14:05,10/26/2025,C,Route C - Airport Connector,C-1-20251026-05,1,Inbound,C09,C-Stop 9,2,C01,10/26/2025 14:04,10/26/2025 14:05,1.19,120,5,1,0,1,45,0.02,Low,23,1,0,0,42.475727,-76.436024,Clear,10/26/2025 14:00,Off-peak,14:00:00,15:00:00,C01,New Flyer Xcelsior,45,2,FALSE,Suburban,Route C - Airport Connector,25.4,#2ca02c,16.2,0,Clear
10/26/2025 14:05,10/26/2025,A,Route A - Downtown Loop,A-1-20251026-05,1,Inbound,A09,A-Stop 9,2,A05,10/26/2025 14:05,10/26/2025 14:05,0.77,120,4,2,1,1,50,0.02,Low,37,1,0,0,42.455676,-76.475994,Clear,10/26/2025 14:00,Off-peak,14:00:00,15:00:00,A05,Proterra ZX5,50,3,TRUE,Suburban,Route A - Downtown Loop,12.3,#1f77b4,16.2,0,Clear
10/26/2025 14:06,10/26/2025,C,Route C - Airport Connector,C-0-20251026-05,0,Outbound,C02,C-Stop 2,2,C05,10/26/2025 14:05,10/26/2025 14:06,0.8,120,1,0,3,0,36,0,Low,16,1,0,1,42.462003,-76.457117,Clear,10/26/2025 14:00,Off-peak,14:00:00,15:00:00,C05,Gillig Low Floor,36,2,FALSE,Urban,Route C - Airport Connector,25.4,#2ca02c,16.2,0,Clear
10/26/2025 14:09,10/26/2025,A,Route A - Downtown Loop,A-1-20251026-05,1,Inbound,A08,A-Stop 8,3,A05,10/26/2025 14:09,10/26/2025 14:09,-0.84,120,4,0,1,0,50,0,Low,23,1,0,0,42.453931,-76.479535,Clear,10/26/2025 14:00,Off-peak,14:00:00,15:00:00,A05,Proterra ZX5,50,3,TRUE,Suburban,Route A - Downtown Loop,12.3,#1f77b4,16.2,0,Clear
10/26/2025 14:09,10/26/2025,B,Route B - University Express,B-0-20251026-05,0,Outbound,B03,B-Stop 3,3,B01,10/26/2025 14:09,10/26/2025 14:09,-0.58,120,0,0,2,0,45,0,Low,33,1,0,0,42.4537,-76.473907,Clear,10/26/2025 14:00,Off-peak,14:00:00,15:00:00,B01,New Flyer Xcelsior,45,2,TRUE,Urban,Route B - University Express,18.7,#ff7f0e,16.2,0,Clear
10/26/2025 14:10,10/26/2025,C,Route C - Airport Connector,C-1-20251026-05,1,Inbound,C08,C-Stop 8,3,C01,10/26/2025 14:09,10/26/2025 14:10,0.65,120,3,1,1,1,45,0.02,Low,23,1,0,0,42.474146,-76.438709,Clear,10/26/2025 14:00,Off-peak,14:00:00,15:00:00,C01,New Flyer Xcelsior,45,2,FALSE,Suburban,Route C - Airport Connector,25.4,#2ca02c,16.2,0,Clear
10/26/2025 14:10,10/26/2025,A,Route A - Downtown Loop,A-0-20251026-05,0,Outbound,A03,A-Stop 3,3,A05,10/26/2025 14:10,10/26/2025 14:10,-0.24,120,2,2,0,3,50,0.06,Low,20,1,0,0,42.444309,-76.494079,Clear,10/26/2025 14:00,Off-peak,14:00:00,15:00:00,A05,Proterra ZX5,50,3,TRUE,Urban,Route A - Downtown Loop,12.3,#1f77b4,16.2,0,Clear
10/26/2025 14:10,10/26/2025,B,Route B - University Express,B-1-20251026-05,1,Inbound,B08,B-Stop 8,3,B05,10/26/2025 14:10,10/26/2025 14:10,0.52,120,2,2,0,2,42,0.05,Low,29,1,0,0,42.464389,-76.459258,Clear,10/26/2025 14:00,Off-peak,14:00:00,15:00:00,B05,Gillig Low Floor,42,2,TRUE,Suburban,Route B - University Express,18.7,#ff7f0e,16.2,0,Clear
10/26/2025 14:11,10/26/2025,C,Route C - Airport Connector,C-0-20251026-05,0,Outbound,C03,C-Stop 3,3,C05,10/26/2025 14:10,10/26/2025 14:11,0.41,120,3,2,2,0,36,0,Low,27,1,0,0,42.463575,-76.454348,Clear,10/26/2025 14:00,Off-peak,14:00:00,15:00:00,C05,Gillig Low Floor,36,2,FALSE,Urban,Route C - Airport Connector,25.4,#2ca02c,16.2,0,Clear
10/26/2025 14:14,10/26/2025,A,Route A - Downtown Loop,A-1-20251026-05,1,Inbound,A07,A-Stop 7,4,A05,10/26/2025 14:14,10/26/2025 14:14,0.12,120,2,1,1,0,50,0,Low,17,1,0,0,42.452144,-76.483038,Clear,10/26/2025 14:00,Off-peak,14:00:00,15:00:00,A05,Proterra ZX5,50,3,TRUE,Suburban,Route A - Downtown Loop,12.3,#1f77b4,16.2,0,Clear
10/26/2025 14:14,10/26/2025,C,Route C - Airport Connector,C-1-20251026-05,1,Inbound,C07,C-Stop 7,4,C01,10/26/2025 14:14,10/26/2025 14:14,0.36,120,6,1,3,0,45,0,Low,26,1,0,0,42.471749,-76.44184,Clear,10/26/2025 14:00,Off-peak,14:00:00,15:00:00,C01,New Flyer Xcelsior,45,2,FALSE,Suburban,Route C - Airport Connector,25.4,#2ca02c,16.2,0,Clear
10/26/2025 14:15,10/26/2025,B,Route B - University Express,B-0-20251026-05,0,Outbound,B04,B-Stop 4,4,B01,10/26/2025 14:14,10/26/2025 14:15,0.62,120,5,0,1,0,45,0,Low,21,1,0,0,42.455644,-76.470748,Clear,10/26/2025 14:00,Off-peak,14:00:00,15:00:00,B01,New Flyer Xcelsior,45,2,TRUE,Urban,Route B - University Express,18.7,#ff7f0e,16.2,0,Clear
10/26/2025 14:15,10/26/2025,C,Route C - Airport Connector,C-0-20251026-05,0,Outbound,C04,C-Stop 4,4,C05,10/26/2025 14:15,10/26/2025 14:15,-0.23,120,1,1,1,0,36,0,Low,25,1,0,0,42.466045,-76.450783,Clear,10/26/2025 14:00,Off-peak,14:00:00,15:00:00,C05,Gillig Low Floor,36,2,FALSE,Urban,Route C - Airport Connector,25.4,#2ca02c,16.2,0,Clear
10/26/2025 14:15,10/26/2025,B,Route B - University Express,B-1-20251026-05,1,Inbound,B07,B-Stop 7,4,B05,10/26/2025 14:15,10/26/2025 14:15,0.53,120,4,0,2,0,42,0,Low,23,1,0,0,42.461777,-76.462174,Clear,10/26/2025 14:00,Off-peak,14:00:00,15:00:00,B05,Gillig Low Floor,42,2,TRUE,Suburban,Route B - University Express,18.7,#ff7f0e,16.2,0,Clear
10/26/2025 14:16,10/26/2025,A,Route A - Downtown Loop,A-0-20251026-05,0,Outbound,A04,A-Stop 4,4,A05,10/26/2025 14:15,10/26/2025 14:16,0.9,120,3,1,2,2,50,0.04,Low,21,1,0,0,42.44627,-76.490792,Clear,10/26/2025 14:00,Off-peak,14:00:00,15:00:00,A05,Proterra ZX5,50,3,TRUE,Urban,Route A - Downtown Loop,12.3,#1f77b4,16.2,0,Clear
10/26/2025 14:19,10/26/2025,B,Route B - University Express,B-1-20251026-05,1,Inbound,B06,B-Stop 6,5,B05,10/26/2025 14:19,10/26/2025 14:19,-0.7,120,1,0,3,0,42,0,Low,25,1,0,0,42.460096,-76.464578,Clear,10/26/2025 14:00,Off-peak,14:00:00,15:00:00,B05,Gillig Low Floor,42,2,TRUE,Urban,Route B - University Express,18.7,#ff7f0e,16.2,0,Clear
10/26/2025 14:19,10/26/2025,A,Route A - Downtown Loop,A-1-20251026-05,1,Inbound,A06,A-Stop 6,5,A05,10/26/2025 14:19,10/26/2025 14:19,-0.16,120,5,4,1,3,50,0.06,Low,33,1,0,0,42.449798,-76.485333,Clear,10/26/2025 14:00,Off-peak,14:00:00,15:00:00,A05,Proterra ZX5,50,3,TRUE,Urban,Route A - Downtown Loop,12.3,#1f77b4,16.2,0,Clear
10/26/2025 14:19,10/26/2025,C,Route C - Airport Connector,C-1-20251026-05,1,Inbound,C06,C-Stop 6,5,C01,10/26/2025 14:19,10/26/2025 14:19,0.37,120,1,0,2,0,45,0,Low,30,1,0,0,42.470246,-76.445085,Clear,10/26/2025 14:00,Off-peak,14:00:00,15:00:00,C01,New Flyer Xcelsior,45,2,FALSE,Urban,Route C - Airport Connector,25.4,#2ca02c,16.2,0,Clear
10/26/2025 14:20,10/26/2025,B,Route B - University Express,B-0-20251026-05,0,Outbound,B05,B-Stop 5,5,B01,10/26/2025 14:19,10/26/2025 14:20,0.87,120,0,0,3,0,45,0,Low,26,1,0,0,42.457888,-76.468324,Clear,10/26/2025 14:00,Off-peak,14:00:00,15:00:00,B01,New Flyer Xcelsior,45,2,TRUE,Urban,Route B - University Express,18.7,#ff7f0e,16.2,0,Clear
10/26/2025 14:20,10/26/2025,A,Route A - Downtown Loop,A-0-20251026-05,0,Outbound,A05,A-Stop 5,5,A05,10/26/2025 14:19,10/26/2025 14:20,0.21,120,3,3,3,2,50,0.04,Low,22,1,0,0,42.447959,-76.487739,Clear,10/26/2025 14:00,Off-peak,14:00:00,15:00:00,A05,Proterra ZX5,50,3,TRUE,Urban,Route A - Downtown Loop,12.3,#1f77b4,16.2,0,Clear
10/26/2025 14:21,10/26/2025,C,Route C - Airport Connector,C-0-20251026-05,0,Outbound,C05,C-Stop 5,5,C05,10/26/2025 14:20,10/26/2025 14:21,0.27,120,1,1,3,0,36,0,Low,26,1,0,0,42.468148,-76.44867,Clear,10/26/2025 14:00,Off-peak,14:00:00,15:00:00,C05,Gillig Low Floor,36,2,FALSE,Urban,Route C - Airport Connector,25.4,#2ca02c,16.2,0,Clear
10/26/2025 14:24,10/26/2025,B,Route B - University Express,B-0-20251026-05,0,Outbound,B06,B-Stop 6,6,B01,10/26/2025 14:23,10/26/2025 14:24,0.76,120,1,1,2,0,45,0,Low,18,1,0,0,42.459873,-76.464436,Clear,10/26/2025 14:00,Off-peak,14:00:00,15:00:00,B01,New Flyer Xcelsior,45,2,TRUE,Urban,Route B - University Express,18.7,#ff7f0e,16.2,0,Clear
10/26/2025 14:24,10/26/2025,A,Route A - Downtown Loop,A-0-20251026-05,0,Outbound,A06,A-Stop 6,6,A05,10/26/2025 14:25,10/26/2025 14:24,-0.09,120,0,0,0,2,50,0.04,Low,15,1,0,0,42.44935,-76.485407,Clear,10/26/2025 14:00,Off-peak,14:00:00,15:00:00,A05,Proterra ZX5,50,3,TRUE,Urban,Route A - Downtown Loop,12.3,#1f77b4,16.2,0,Clear
10/26/2025 14:25,10/26/2025,C,Route C - Airport Connector,C-1-20251026-05,1,Inbound,C05,C-Stop 5,6,C01,10/26/2025 14:24,10/26/2025 14:25,0.63,120,4,0,0,0,45,0,Low,15,0,0,0,42.4681,-76.448577,Clear,10/26/2025 14:00,Off-peak,14:00:00,15:00:00,C01,New Flyer Xcelsior,45,2,FALSE,Urban,Route C - Airport Connector,25.4,#2ca02c,16.2,0,Clear
10/26/2025 14:25,10/26/2025,A,Route A - Downtown Loop,A-1-20251026-05,1,Inbound,A05,A-Stop 5,6,A05,10/26/2025 14:25,10/26/2025 14:25,0.51,120,3,3,2,4,50,0.08,Low,24,1,0,0,42.447594,-76.487891,Clear,10/26/2025 14:00,Off-peak,14:00:00,15:00:00,A05,Proterra ZX5,50,3,TRUE,Urban,Route A - Downtown Loop,12.3,#1f77b4,16.2,0,Clear
10/26/2025 14:26,10/26/2025,C,Route C - Airport Connector,C-0-20251026-05,0,Outbound,C06,C-Stop 6,6,C05,10/26/2025 14:26,10/26/2025 14:26,-0.19,120,0,0,1,0,36,0,Low,23,1,0,0,42.469988,-76.444741,Clear,10/26/2025 14:00,Off-peak,14:00:00,15:00:00,C05,Gillig Low Floor,36,2,FALSE,Urban,Route C - Airport Connector,25.4,#2ca02c,16.2,0,Clear
10/26/2025 14:27,10/26/2025,B,Route B - University Express,B-1-20251026-05,1,Inbound,B05,B-Stop 5,6,B05,10/26/2025 14:25,10/26/2025 14:27,1.9,120,3,3,2,1,42,0.02,Low,16,1,0,0,42.457937,-76.468026,Clear,10/26/2025 14:00,Off-peak,14:00:00,15:00:00,B05,Gillig Low Floor,42,2,TRUE,Urban,Route B - University Express,18.7,#ff7f0e,16.2,0,Clear
10/26/2025 14:28,10/26/2025,B,Route B - University Express,B-0-20251026-05,0,Outbound,B07,B-Stop 7,7,B01,10/26/2025 14:28,10/26/2025 14:28,-0.11,120,1,0,2,0,45,0,Low,20,1,0,0,42.46219,-76.462362,Clear,10/26/2025 14:00,Off-peak,14:00:00,15:00:00,B01,New Flyer Xcelsior,45,2,TRUE,Suburban,Route B - University Express,18.7,#ff7f0e,16.2,0,Clear
10/26/2025 14:29,10/26/2025,B,Route B - University Express,B-1-20251026-05,1,Inbound,B04,B-Stop 4,7,B05,10/26/2025 14:30,10/26/2025 14:29,-0.33,120,4,0,4,0,42,0,Low,25,1,0,0,42.45541,-76.47099,Clear,10/26/2025 14:00,Off-peak,14:00:00,15:00:00,B05,Gillig Low Floor,42,2,TRUE,Urban,Route B - University Express,18.7,#ff7f0e,16.2,0,Clear
10/26/2025 14:30,10/26/2025,C,Route C - Airport Connector,C-1-20251026-05,1,Inbound,C04,C-Stop 4,7,C01,10/26/2025 14:28,10/26/2025 14:30,1.23,120,2,2,3,0,45,0,Low,15,1,0,0,42.465759,-76.45076,Clear,10/26/2025 14:00,Off-peak,14:00:00,15:00:00,C01,New Flyer Xcelsior,45,2,FALSE,Urban,Route C - Airport Connector,25.4,#2ca02c,16.2,0,Clear
10/26/2025 14:30,10/26/2025,A,Route A - Downtown Loop,A-0-20251026-05,0,Outbound,A07,A-Stop 7,7,A05,10/26/2025 14:29,10/26/2025 14:30,0.86,120,4,1,2,1,50,0.02,Low,30,1,0,0,42.45204,-76.482851,Clear,10/26/2025 14:00,Off-peak,14:00:00,15:00:00,A05,Proterra ZX5,50,3,TRUE,Suburban,Route A - Downtown Loop,12.3,#1f77b4,16.2,0,Clear
10/26/2025 14:30,10/26/2025,A,Route A - Downtown Loop,A-1-20251026-05,1,Inbound,A04,A-Stop 4,7,A05,10/26/2025 14:30,10/26/2025 14:30,0.13,120,4,2,1,5,50,0.1,Low,17,1,0,0,42.446442,-76.490875,Clear,10/26/2025 14:00,Off-peak,14:00:00,15:00:00,A05,Proterra ZX5,50,3,TRUE,Urban,Route A - Downtown Loop,12.3,#1f77b4,16.2,0,Clear
10/26/2025 14:32,10/26/2025,C,Route C - Airport Connector,C-0-20251026-05,0,Outbound,C07,C-Stop 7,7,C05,10/26/2025 14:31,10/26/2025 14:32,0.53,120,3,2,3,0,36,0,Low,23,1,0,0,42.471506,-76.441643,Clear,10/26/2025 14:00,Off-peak,14:00:00,15:00:00,C05,Gillig Low Floor,36,2,FALSE,Suburban,Route C - Airport Connector,25.4,#2ca02c,16.2,0,Clear
10/26/2025 14:33,10/26/2025,B,Route B - University Express,B-0-20251026-05,0,Outbound,B08,B-Stop 8,8,B01,10/26/2025 14:33,10/26/2025 14:33,0.06,120,2,2,1,1,45,0.02,Low,23,1,0,0,42.464529,-76.459265,Clear,10/26/2025 14:00,Off-peak,14:00:00,15:00:00,B01,New Flyer Xcelsior,45,2,TRUE,Suburban,Route B - University Express,18.7,#ff7f0e,16.2,0,Clear
10/26/2025 14:33,10/26/2025,C,Route C - Airport Connector,C-1-20251026-05,1,Inbound,C03,C-Stop 3,8,C01,10/26/2025 14:33,10/26/2025 14:33,0.1,120,5,3,2,1,45,0.02,Low,25,1,0,0,42.463277,-76.454632,Clear,10/26/2025 14:00,Off-peak,14:00:00,15:00:00,C01,New Flyer Xcelsior,45,2,FALSE,Urban,Route C - Airport Connector,25.4,#2ca02c,16.2,0,Clear
10/26/2025 14:34,10/26/2025,A,Route A - Downtown Loop,A-0-20251026-05,0,Outbound,A08,A-Stop 8,8,A05,10/26/2025 14:34,10/26/2025 14:34,0.14,120,0,0,2,0,50,0,Low,27,1,0,0,42.453538,-76.479023,Clear,10/26/2025 14:00,Off-peak,14:00:00,15:00:00,A05,Proterra ZX5,50,3,TRUE,Suburban,Route A - Downtown Loop,12.3,#1f77b4,16.2,0,Clear
10/26/2025 14:35,10/26/2025,A,Route A - Downtown Loop,A-1-20251026-05,1,Inbound,A03,A-Stop 3,8,A05,10/26/2025 14:35,10/26/2025 14:35,-0.23,120,1,1,2,4,50,0.08,Low,20,1,0,0,42.443933,-76.493794,Clear,10/26/2025 14:00,Off-peak,14:00:00,15:00:00,A05,Proterra ZX5,50,3,TRUE,Urban,Route A - Downtown Loop,12.3,#1f77b4,16.2,0,Clear
10/26/2025 14:36,10/26/2025,B,Route B - University Express,B-1-20251026-05,1,Inbound,B03,B-Stop 3,8,B05,10/26/2025 14:35,10/26/2025 14:36,1.65,120,1,1,1,0,42,0,Low,27,1,0,0,42.453732,-76.474195,Clear,10/26/2025 14:00,Off-peak,14:00:00,15:00:00,B05,Gillig Low Floor,42,2,TRUE,Urban,Route B - University Express,18.7,#ff7f0e,16.2,0,Clear
10/26/2025 14:37,10/26/2025,C,Route C - Airport Connector,C-0-20251026-05,0,Outbound,C08,C-Stop 8,8,C05,10/26/2025 14:36,10/26/2025 14:37,0.26,120,3,1,2,0,36,0,Low,24,1,0,0,42.474191,-76.438483,Clear,10/26/2025 14:00,Off-peak,14:00:00,15:00:00,C05,Gillig Low Floor,36,2,FALSE,Suburban,Route C - Airport Connector,25.4,#2ca02c,16.2,0,Clear
10/26/2025 14:38,10/26/2025,C,Route C - Airport Connector,C-1-20251026-05,1,Inbound,C02,C-Stop 2,9,C01,10/26/2025 14:38,10/26/2025 14:38,0.42,120,3,1,1,1,45,0.02,Low,37,1,0,0,42.461801,-76.456905,Clear,10/26/2025 14:00,Off-peak,14:00:00,15:00:00,C01,New Flyer Xcelsior,45,2,FALSE,Urban,Route C - Airport Connector,25.4,#2ca02c,16.2,0,Clear
10/26/2025 14:39,10/26/2025,A,Route A - Downtown Loop,A-0-20251026-05,0,Outbound,A09,A-Stop 9,9,A05,10/26/2025 14:39,10/26/2025 14:39,0.32,120,2,1,3,0,50,0,Low,15,1,0,0,42.455872,-76.47603,Clear,10/26/2025 14:00,Off-peak,14:00:00,15:00:00,A05,Proterra ZX5,50,3,TRUE,Suburban,Route A - Downtown Loop,12.3,#1f77b4,16.2,0,Clear
10/26/2025 14:39,10/26/2025,B,Route B - University Express,B-1-20251026-05,1,Inbound,B02,B-Stop 2,9,B05,10/26/2025 14:39,10/26/2025 14:39,0.02,120,1,1,3,0,42,0,Low,23,1,0,0,42.451793,-76.47752,Clear,10/26/2025 14:00,Off-peak,14:00:00,15:00:00,B05,Gillig Low Floor,42,2,TRUE,Urban,Route B - University Express,18.7,#ff7f0e,16.2,0,Clear
10/26/2025 14:39,10/26/2025,B,Route B - University Express,B-0-20251026-05,0,Outbound,B09,B-Stop 9,9,B01,10/26/2025 14:38,10/26/2025 14:39,0.96,120,1,1,3,0,45,0,Low,34,1,0,0,42.46626,-76.456394,Clear,10/26/2025 14:00,Off-peak,14:00:00,15:00:00,B01,New Flyer Xcelsior,45,2,TRUE,Suburban,Route B - University Express,18.7,#ff7f0e,16.2,0,Clear
10/26/2025 14:41,10/26/2025,A,Route A - Downtown Loop,A-1-20251026-05,1,Inbound,A02,A-Stop 2,9,A05,10/26/2025 14:40,10/26/2025 14:41,0.56,120,1,1,4,1,50,0.02,Low,20,1,0,0,42.441958,-76.496508,Clear,10/26/2025 14:00,Off-peak,14:00:00,15:00:00,A05,Proterra ZX5,50,3,TRUE,Urban,Route A - Downtown Loop,12.3,#1f77b4,16.2,0,Clear
10/26/2025 14:42,10/26/2025,C,Route C - Airport Connector,C-0-20251026-05,0,Outbound,C09,C-Stop 9,9,C05,10/26/2025 14:41,10/26/2025 14:42,1.62,120,4,0,1,0,36,0,Low,23,1,0,0,42.475827,-76.436291,Clear,10/26/2025 14:00,Off-peak,14:00:00,15:00:00,C05,Gillig Low Floor,36,2,FALSE,Suburban,Route C - Airport Connector,25.4,#2ca02c,16.2,0,Clear
10/26/2025 14:43,10/26/2025,C,Route C - Airport Connector,C-1-20251026-05,1,Inbound,C01,C-Stop 1,10,C01,10/26/2025 14:43,10/26/2025 14:43,0.16,120,5,4,1,4,45,0.09,Low,29,1,0,0,42.460294,-76.459947,Clear,10/26/2025 14:00,Off-peak,14:00:00,15:00:00,C01,New Flyer Xcelsior,45,2,FALSE,Urban,Route C - Airport Connector,25.4,#2ca02c,16.2,0,Clear
10/26/2025 14:43,10/26/2025,B,Route B - University Express,B-0-20251026-05,0,Outbound,B10,B-Stop 10,10,B01,10/26/2025 14:43,10/26/2025 14:43,-0.3,120,2,0,3,0,45,0,Low,23,1,0,0,42.46786,-76.453187,Clear,10/26/2025 14:00,Off-peak,14:00:00,15:00:00,B01,New Flyer Xcelsior,45,2,TRUE,Suburban,Route B - University Express,18.7,#ff7f0e,16.2,0,Clear
10/26/2025 14:44,10/26/2025,B,Route B - University Express,B-1-20251026-05,1,Inbound,B01,B-Stop 1,10,B05,10/26/2025 14:44,10/26/2025 14:44,-0.6,120,6,3,3,0,42,0,Low,27,1,0,0,42.450021,-76.479761,Clear,10/26/2025 14:00,Off-peak,14:00:00,15:00:00,B05,Gillig Low Floor,42,2,TRUE,Urban,Route B - University Express,18.7,#ff7f0e,16.2,0,Clear
10/26/2025 14:44,10/26/2025,A,Route A - Downtown Loop,A-0-20251026-05,0,Outbound,A10,A-Stop 10,10,A05,10/26/2025 14:44,10/26/2025 14:44,0.36,120,0,0,1,0,50,0,Low,23,1,0,0,42.457567,-76.473103,Clear,10/26/2025 14:00,Off-peak,14:00:00,15:00:00,A05,Proterra ZX5,50,3,TRUE,Suburban,Route A - Downtown Loop,12.3,#1f77b4,16.2,0,Clear
10/26/2025 14:46,10/26/2025,A,Route A - Downtown Loop,A-1-20251026-05,1,Inbound,A01,A-Stop 1,10,A05,10/26/2025 14:46,10/26/2025 14:46,0.15,120,0,0,2,0,50,0,Low,22,1,1,0,42.44027,-76.499809,Clear,10/26/2025 14:00,Off-peak,14:00:00,15:00:00,A05,Proterra ZX5,50,3,TRUE,Urban,Route A - Downtown Loop,12.3,#1f77b4,16.2,0,Clear
10/26/2025 14:46,10/26/2025,C,Route C - Airport Connector,C-0-20251026-05,0,Outbound,C10,C-Stop 10,10,C05,10/26/2025 14:46,10/26/2025 14:46,0.13,120,1,0,2,0,36,0,Low,15,1,0,0,42.478195,-76.432548,Clear,10/26/2025 14:00,Off-peak,14:00:00,15:00:00,C05,Gillig Low Floor,36,2,FALSE,Suburban,Route C - Airport Connector,25.4,#2ca02c,16.2,0,Clear
10/26/2025 15:59,10/26/2025,B,Route B - University Express,B-1-20251026-06,1,Inbound,B10,B-Stop 10,1,B01,10/26/2025 16:00,10/26/2025 15:59,-0.32,120,1,1,1,0,45,0,Low,31,1,0,0,42.467783,-76.453003,Cloudy,10/26/2025 15:00,Peak,16:00:00,17:00:00,B01,New Flyer Xcelsior,45,2,TRUE,Suburban,Route B - University Express,18.7,#ff7f0e,14.8,0,Clear
10/26/2025 16:00,10/26/2025,C,Route C - Airport Connector,C-0-20251026-06,0,Outbound,C01,C-Stop 1,1,C01,10/26/2025 16:00,10/26/2025 16:00,0.07,120,3,3,0,3,45,0.07,Low,21,1,0,0,42.460122,-76.459716,Cloudy,10/26/2025 16:00,Peak,16:00:00,17:00:00,C01,New Flyer Xcelsior,45,2,FALSE,Urban,Route C - Airport Connector,25.4,#2ca02c,14.2,0.29,Cloudy
10/26/2025 16:00,10/26/2025,C,Route C - Airport Connector,C-1-20251026-06,1,Inbound,C10,C-Stop 10,1,C02,10/26/2025 16:00,10/26/2025 16:00,0.32,120,1,1,0,1,36,0.03,Low,30,1,0,0,42.47808,-76.432967,Cloudy,10/26/2025 16:00,Peak,16:00:00,17:00:00,C02,New Flyer Xcelsior,36,2,TRUE,Suburban,Route C - Airport Connector,25.4,#2ca02c,14.2,0.29,Cloudy
10/26/2025 16:00,10/26/2025,A,Route A - Downtown Loop,A-1-20251026-06,1,Inbound,A10,A-Stop 10,1,A01,10/26/2025 16:00,10/26/2025 16:00,0.34,120,2,2,0,2,36,0.06,Low,19,1,0,0,42.457674,-76.473522,Cloudy,10/26/2025 16:00,Peak,16:00:00,17:00:00,A01,Proterra ZX5,36,2,TRUE,Suburban,Route A - Downtown Loop,12.3,#1f77b4,14.2,0.29,Cloudy
10/26/2025 16:00,10/26/2025,B,Route B - University Express,B-0-20251026-06,0,Outbound,B01,B-Stop 1,1,B01,10/26/2025 16:00,10/26/2025 16:00,0.85,120,2,0,1,0,45,0,Low,31,1,0,0,42.450482,-76.480061,Cloudy,10/26/2025 16:00,Peak,16:00:00,17:00:00,B01,New Flyer Xcelsior,45,2,TRUE,Urban,Route B - University Express,18.7,#ff7f0e,14.2,0.29,Cloudy
10/26/2025 16:01,10/26/2025,A,Route A - Downtown Loop,A-0-20251026-06,0,Outbound,A01,A-Stop 1,1,A02,10/26/2025 16:00,10/26/2025 16:01,1.28,120,0,0,0,0,40,0,Low,15,0,0,0,42.440017,-76.50009,Cloudy,10/26/2025 16:00,Peak,16:00:00,17:00:00,A02,Proterra ZX5,40,2,TRUE,Urban,Route A - Downtown Loop,12.3,#1f77b4,14.2,0.29,Cloudy
10/26/2025 16:03,10/26/2025,C,Route C - Airport Connector,C-1-20251026-06,1,Inbound,C09,C-Stop 9,2,C02,10/26/2025 16:04,10/26/2025 16:03,-1,120,2,2,1,2,36,0.06,Low,36,1,0,0,42.475863,-76.435987,Cloudy,10/26/2025 16:00,Peak,16:00:00,17:00:00,C02,New Flyer Xcelsior,36,2,TRUE,Suburban,Route C - Airport Connector,25.4,#2ca02c,14.2,0.29,Cloudy
10/26/2025 16:04,10/26/2025,A,Route A - Downtown Loop,A-0-20251026-06,0,Outbound,A02,A-Stop 2,2,A02,10/26/2025 16:04,10/26/2025 16:04,-0.05,120,0,0,0,0,40,0,Low,15,0,0,0,42.441945,-76.496502,Cloudy,10/26/2025 16:00,Peak,16:00:00,17:00:00,A02,Proterra ZX5,40,2,TRUE,Urban,Route A - Downtown Loop,12.3,#1f77b4,14.2,0.29,Cloudy
10/26/2025 16:04,10/26/2025,C,Route C - Airport Connector,C-0-20251026-06,0,Outbound,C02,C-Stop 2,2,C01,10/26/2025 16:05,10/26/2025 16:04,-0.64,120,5,3,3,3,45,0.07,Low,27,1,0,0,42.461956,-76.456861,Cloudy,10/26/2025 16:00,Peak,16:00:00,17:00:00,C01,New Flyer Xcelsior,45,2,FALSE,Urban,Route C - Airport Connector,25.4,#2ca02c,14.2,0.29,Cloudy
10/26/2025 16:05,10/26/2025,B,Route B - University Express,B-1-20251026-06,1,Inbound,B09,B-Stop 9,2,B01,10/26/2025 16:04,10/26/2025 16:05,0.41,120,2,2,2,0,45,0,Low,28,1,0,0,42.465557,-76.456562,Cloudy,10/26/2025 16:00,Peak,16:00:00,17:00:00,B01,New Flyer Xcelsior,45,2,TRUE,Suburban,Route B - University Express,18.7,#ff7f0e,14.2,0.29,Cloudy
10/26/2025 16:05,10/26/2025,B,Route B - University Express,B-0-20251026-06,0,Outbound,B02,B-Stop 2,2,B01,10/26/2025 16:05,10/26/2025 16:05,0.32,120,1,1,3,0,45,0,Low,41,1,0,0,42.452333,-76.477332,Cloudy,10/26/2025 16:00,Peak,16:00:00,17:00:00,B01,New Flyer Xcelsior,45,2,TRUE,Urban,Route B - University Express,18.7,#ff7f0e,14.2,0.29,Cloudy
10/26/2025 16:05,10/26/2025,A,Route A - Downtown Loop,A-1-20251026-06,1,Inbound,A09,A-Stop 9,2,A01,10/26/2025 16:04,10/26/2025 16:05,1.3,120,7,1,2,1,36,0.03,Low,23,1,0,1,42.455918,-76.475645,Cloudy,10/26/2025 16:00,Peak,16:00:00,17:00:00,A01,Proterra ZX5,36,2,TRUE,Suburban,Route A - Downtown Loop,12.3,#1f77b4,14.2,0.29,Cloudy
10/26/2025 16:09,10/26/2025,C,Route C - Airport Connector,C-1-20251026-06,1,Inbound,C08,C-Stop 8,3,C02,10/26/2025 16:09,10/26/2025 16:09,-0.02,120,2,0,1,1,36,0.03,Low,15,1,0,0,42.474054,-76.438546,Cloudy,10/26/2025 16:00,Peak,16:00:00,17:00:00,C02,New Flyer Xcelsior,36,2,TRUE,Suburban,Route C - Airport Connector,25.4,#2ca02c,14.2,0.29,Cloudy
10/26/2025 16:09,10/26/2025,A,Route A - Downtown Loop,A-1-20251026-06,1,Inbound,A08,A-Stop 8,3,A01,10/26/2025 16:08,10/26/2025 16:09,0.49,120,0,0,2,0,36,0,Low,20,1,0,0,42.453434,-76.479226,Cloudy,10/26/2025 16:00,Peak,16:00:00,17:00:00,A01,Proterra ZX5,36,2,TRUE,Suburban,Route A - Downtown Loop,12.3,#1f77b4,14.2,0.29,Cloudy
10/26/2025 16:09,10/26/2025,B,Route B - University Express,B-0-20251026-06,0,Outbound,B03,B-Stop 3,3,B01,10/26/2025 16:10,10/26/2025 16:09,-0.28,120,1,1,4,0,45,0,Low,35,1,0,0,42.453986,-76.474159,Cloudy,10/26/2025 16:00,Peak,16:00:00,17:00:00,B01,New Flyer Xcelsior,45,2,TRUE,Urban,Route B - University Express,18.7,#ff7f0e,14.2,0.29,Cloudy
10/26/2025 16:09,10/26/2025,A,Route A - Downtown Loop,A-0-20251026-06,0,Outbound,A03,A-Stop 3,3,A02,10/26/2025 16:09,10/26/2025 16:09,0.37,120,5,4,0,4,40,0.1,Low,19,1,0,0,42.443869,-76.493978,Cloudy,10/26/2025 16:00,Peak,16:00:00,17:00:00,A02,Proterra ZX5,40,2,TRUE,Urban,Route A - Downtown Loop,12.3,#1f77b4,14.2,0.29,Cloudy
10/26/2025 16:10,10/26/2025,B,Route B - University Express,B-1-20251026-06,1,Inbound,B08,B-Stop 8,3,B01,10/26/2025 16:09,10/26/2025 16:10,0.3,120,1,0,2,0,45,0,Low,22,1,0,0,42.464362,-76.4595,Cloudy,10/26/2025 16:00,Peak,16:00:00,17:00:00,B01,New Flyer Xcelsior,45,2,TRUE,Suburban,Route B - University Express,18.7,#ff7f0e,14.2,0.29,Cloudy
10/26/2025 16:12,10/26/2025,C,Route C - Airport Connector,C-0-20251026-06,0,Outbound,C03,C-Stop 3,3,C01,10/26/2025 16:10,10/26/2025 16:12,1.55,120,4,2,0,5,45,0.11,Low,21,1,0,0,42.463269,-76.454259,Cloudy,10/26/2025 16:00,Peak,16:00:00,17:00:00,C01,New Flyer Xcelsior,45,2,FALSE,Urban,Route C - Airport Connector,25.4,#2ca02c,14.2,0.29,Cloudy
10/26/2025 16:13,10/26/2025,A,Route A - Downtown Loop,A-0-20251026-06,0,Outbound,A04,A-Stop 4,4,A02,10/26/2025 16:13,10/26/2025 16:13,-0.39,120,3,2,2,4,40,0.1,Low,27,1,0,0,42.446541,-76.490731,Cloudy,10/26/2025 16:00,Peak,16:00:00,17:00:00,A02,Proterra ZX5,40,2,TRUE,Urban,Route A - Downtown Loop,12.3,#1f77b4,14.2,0.29,Cloudy
10/26/2025 16:13,10/26/2025,C,Route C - Airport Connector,C-1-20251026-06,1,Inbound,C07,C-Stop 7,4,C02,10/26/2025 16:13,10/26/2025 16:13,-0.1,120,2,2,2,1,36,0.03,Low,28,1,0,0,42.471628,-76.44194,Cloudy,10/26/2025 16:00,Peak,16:00:00,17:00:00,C02,New Flyer Xcelsior,36,2,TRUE,Suburban,Route C - Airport Connector,25.4,#2ca02c,14.2,0.29,Cloudy
10/26/2025 16:15,10/26/2025,A,Route A - Downtown Loop,A-1-20251026-06,1,Inbound,A07,A-Stop 7,4,A01,10/26/2025 16:14,10/26/2025 16:15,0.83,120,0,0,3,0,36,0,Low,19,1,0,0,42.452087,-76.482232,Cloudy,10/26/2025 16:00,Peak,16:00:00,17:00:00,A01,Proterra ZX5,36,2,TRUE,Suburban,Route A - Downtown Loop,12.3,#1f77b4,14.2,0.29,Cloudy
10/26/2025 16:15,10/26/2025,B,Route B - University Express,B-0-20251026-06,0,Outbound,B04,B-Stop 4,4,B01,10/26/2025 16:15,10/26/2025 16:15,0.06,120,0,0,1,0,45,0,Low,20,1,0,0,42.455605,-76.470987,Cloudy,10/26/2025 16:00,Peak,16:00:00,17:00:00,B01,New Flyer Xcelsior,45,2,TRUE,Urban,Route B - University Express,18.7,#ff7f0e,14.2,0.29,Cloudy
10/26/2025 16:16,10/26/2025,B,Route B - University Express,B-1-20251026-06,1,Inbound,B07,B-Stop 7,4,B01,10/26/2025 16:15,10/26/2025 16:16,0.8,120,3,1,2,0,45,0,Low,27,1,0,0,42.462044,-76.462109,Cloudy,10/26/2025 16:00,Peak,16:00:00,17:00:00,B01,New Flyer Xcelsior,45,2,TRUE,Suburban,Route B - University Express,18.7,#ff7f0e,14.2,0.29,Cloudy
10/26/2025 16:16,10/26/2025,C,Route C - Airport Connector,C-0-20251026-06,0,Outbound,C04,C-Stop 4,4,C01,10/26/2025 16:16,10/26/2025 16:16,0.2,120,5,2,1,6,45,0.13,Low,25,1,1,0,42.465956,-76.450655,Cloudy,10/26/2025 16:00,Peak,16:00:00,17:00:00,C01,New Flyer Xcelsior,45,2,FALSE,Urban,Route C - Airport Connector,25.4,#2ca02c,14.2,0.29,Cloudy
10/26/2025 16:19,10/26/2025,A,Route A - Downtown Loop,A-0-20251026-06,0,Outbound,A05,A-Stop 5,5,A02,10/26/2025 16:18,10/26/2025 16:19,0.6,120,0,0,0,4,40,0.1,Low,15,0,0,0,42.447814,-76.487703,Cloudy,10/26/2025 16:00,Peak,16:00:00,17:00:00,A02,Proterra ZX5,40,2,TRUE,Urban,Route A - Downtown Loop,12.3,#1f77b4,14.2,0.29,Cloudy
10/26/2025 16:19,10/26/2025,A,Route A - Downtown Loop,A-1-20251026-06,1,Inbound,A06,A-Stop 6,5,A01,10/26/2025 16:19,10/26/2025 16:19,0,120,4,4,2,2,36,0.06,Low,21,1,0,0,42.449895,-76.48509,Cloudy,10/26/2025 16:00,Peak,16:00:00,17:00:00,A01,Proterra ZX5,36,2,TRUE,Urban,Route A - Downtown Loop,12.3,#1f77b4,14.2,0.29,Cloudy
10/26/2025 16:20,10/26/2025,B,Route B - University Express,B-1-20251026-06,1,Inbound,B06,B-Stop 6,5,B01,10/26/2025 16:20,10/26/2025 16:20,-0.55,120,0,0,0,0,45,0,Low,15,0,0,0,42.45994,-76.464449,Cloudy,10/26/2025 16:00,Peak,16:00:00,17:00:00,B01,New Flyer Xcelsior,45,2,TRUE,Urban,Route B - University Express,18.7,#ff7f0e,14.2,0.29,Cloudy
10/26/2025 16:20,10/26/2025,C,Route C - Airport Connector,C-1-20251026-06,1,Inbound,C06,C-Stop 6,5,C02,10/26/2025 16:19,10/26/2025 16:20,1.34,120,5,2,2,1,36,0.03,Low,33,1,0,0,42.470256,-76.445574,Cloudy,10/26/2025 16:00,Peak,16:00:00,17:00:00,C02,New Flyer Xcelsior,36,2,TRUE,Urban,Route C - Airport Connector,25.4,#2ca02c,14.2,0.29,Cloudy
10/26/2025 16:20,10/26/2025,B,Route B - University Express,B-0-20251026-06,0,Outbound,B05,B-Stop 5,5,B01,10/26/2025 16:20,10/26/2025 16:20,0.15,120,0,0,1,0,45,0,Low,19,1,0,0,42.457754,-76.468109,Cloudy,10/26/2025 16:00,Peak,16:00:00,17:00:00,B01,New Flyer Xcelsior,45,2,TRUE,Urban,Route B - University Express,18.7,#ff7f0e,14.2,0.29,Cloudy
10/26/2025 16:20,10/26/2025,C,Route C - Airport Connector,C-0-20251026-06,0,Outbound,C05,C-Stop 5,5,C01,10/26/2025 16:21,10/26/2025 16:20,-0.26,120,2,2,3,5,45,0.11,Low,16,1,0,0,42.46763,-76.448514,Cloudy,10/26/2025 16:00,Peak,16:00:00,17:00:00,C01,New Flyer Xcelsior,45,2,FALSE,Urban,Route C - Airport Connector,25.4,#2ca02c,14.2,0.29,Cloudy
10/26/2025 16:22,10/26/2025,A,Route A - Downtown Loop,A-0-20251026-06,0,Outbound,A06,A-Stop 6,6,A02,10/26/2025 16:22,10/26/2025 16:22,0.18,120,4,3,1,6,40,0.15,Low,23,1,0,0,42.449738,-76.485218,Cloudy,10/26/2025 16:00,Peak,16:00:00,17:00:00,A02,Proterra ZX5,40,2,TRUE,Urban,Route A - Downtown Loop,12.3,#1f77b4,14.2,0.29,Cloudy
10/26/2025 16:24,10/26/2025,C,Route C - Airport Connector,C-1-20251026-06,1,Inbound,C05,C-Stop 5,6,C02,10/26/2025 16:23,10/26/2025 16:24,0.4,120,0,0,1,0,36,0,Low,23,1,0,0,42.468046,-76.448587,Cloudy,10/26/2025 16:00,Peak,16:00:00,17:00:00,C02,New Flyer Xcelsior,36,2,TRUE,Urban,Route C - Airport Connector,25.4,#2ca02c,14.2,0.29,Cloudy
10/26/2025 16:24,10/26/2025,A,Route A - Downtown Loop,A-1-20251026-06,1,Inbound,A05,A-Stop 5,6,A01,10/26/2025 16:24,10/26/2025 16:24,0.46,120,0,0,2,0,36,0,Low,15,1,0,0,42.44804,-76.48824,Cloudy,10/26/2025 16:00,Peak,16:00:00,17:00:00,A01,Proterra ZX5,36,2,TRUE,Urban,Route A - Downtown Loop,12.3,#1f77b4,14.2,0.29,Cloudy
10/26/2025 16:26,10/26/2025,B,Route B - University Express,B-0-20251026-06,0,Outbound,B06,B-Stop 6,6,B01,10/26/2025 16:25,10/26/2025 16:26,0.36,120,4,2,2,0,45,0,Low,26,1,0,0,42.459433,-76.464494,Cloudy,10/26/2025 16:00,Peak,16:00:00,17:00:00,B01,New Flyer Xcelsior,45,2,TRUE,Urban,Route B - University Express,18.7,#ff7f0e,14.2,0.29,Cloudy
10/26/2025 16:26,10/26/2025,C,Route C - Airport Connector,C-0-20251026-06,0,Outbound,C06,C-Stop 6,6,C01,10/26/2025 16:26,10/26/2025 16:26,-0.11,120,5,2,1,6,45,0.13,Low,29,1,0,0,42.469991,-76.445173,Cloudy,10/26/2025 16:00,Peak,16:00:00,17:00:00,C01,New Flyer Xcelsior,45,2,FALSE,Urban,Route C - Airport Connector,25.4,#2ca02c,14.2,0.29,Cloudy
10/26/2025 16:26,10/26/2025,B,Route B - University Express,B-1-20251026-06,1,Inbound,B05,B-Stop 5,6,B01,10/26/2025 16:25,10/26/2025 16:26,0.88,120,3,2,3,0,45,0,Low,24,1,0,0,42.458232,-76.468177,Cloudy,10/26/2025 16:00,Peak,16:00:00,17:00:00,B01,New Flyer Xcelsior,45,2,TRUE,Urban,Route B - University Express,18.7,#ff7f0e,14.2,0.29,Cloudy
10/26/2025 16:26,10/26/2025,A,Route A - Downtown Loop,A-0-20251026-06,0,Outbound,A07,A-Stop 7,7,A02,10/26/2025 16:27,10/26/2025 16:26,-0.33,120,3,2,2,6,40,0.15,Low,26,1,0,0,42.452213,-76.482398,Cloudy,10/26/2025 16:00,Peak,16:00:00,17:00:00,A02,Proterra ZX5,40,2,TRUE,Suburban,Route A - Downtown Loop,12.3,#1f77b4,14.2,0.29,Cloudy
10/26/2025 16:28,10/26/2025,A,Route A - Downtown Loop,A-1-20251026-06,1,Inbound,A04,A-Stop 4,7,A01,10/26/2025 16:28,10/26/2025 16:28,-0.1,120,3,3,2,1,36,0.03,Low,23,1,0,0,42.44659,-76.490944,Cloudy,10/26/2025 16:00,Peak,16:00:00,17:00:00,A01,Proterra ZX5,36,2,TRUE,Urban,Route A - Downtown Loop,12.3,#1f77b4,14.2,0.29,Cloudy
10/26/2025 16:29,10/26/2025,C,Route C - Airport Connector,C-1-20251026-06,1,Inbound,C04,C-Stop 4,7,C02,10/26/2025 16:29,10/26/2025 16:29,0.04,120,2,0,3,0,36,0,Low,20,1,0,0,42.465644,-76.45064,Cloudy,10/26/2025 16:00,Peak,16:00:00,17:00:00,C02,New Flyer Xcelsior,36,2,TRUE,Urban,Route C - Airport Connector,25.4,#2ca02c,14.2,0.29,Cloudy
10/26/2025 16:31,10/26/2025,B,Route B - University Express,B-1-20251026-06,1,Inbound,B04,B-Stop 4,7,B01,10/26/2025 16:31,10/26/2025 16:31,-0.38,120,4,1,3,0,45,0,Low,22,1,0,0,42.455713,-76.471017,Cloudy,10/26/2025 16:00,Peak,16:00:00,17:00:00,B01,New Flyer Xcelsior,45,2,TRUE,Urban,Route B - University Express,18.7,#ff7f0e,14.2,0.29,Cloudy
10/26/2025 16:31,10/26/2025,A,Route A - Downtown Loop,A-0-20251026-06,0,Outbound,A08,A-Stop 8,8,A02,10/26/2025 16:31,10/26/2025 16:31,-0.31,120,2,1,1,6,40,0.15,Low,30,1,0,0,42.453879,-76.479131,Cloudy,10/26/2025 16:00,Peak,16:00:00,17:00:00,A02,Proterra ZX5,40,2,TRUE,Suburban,Route A - Downtown Loop,12.3,#1f77b4,14.2,0.29,Cloudy
10/26/2025 16:32,10/26/2025,C,Route C - Airport Connector,C-0-20251026-06,0,Outbound,C07,C-Stop 7,7,C01,10/26/2025 16:31,10/26/2025 16:32,0.18,120,6,3,2,7,45,0.16,Low,24,1,0,0,42.471972,-76.441881,Cloudy,10/26/2025 16:00,Peak,16:00:00,17:00:00,C01,New Flyer Xcelsior,45,2,FALSE,Suburban,Route C - Airport Connector,25.4,#2ca02c,14.2,0.29,Cloudy
10/26/2025 16:33,10/26/2025,A,Route A - Downtown Loop,A-1-20251026-06,1,Inbound,A03,A-Stop 3,8,A01,10/26/2025 16:33,10/26/2025 16:33,-0.52,120,3,1,1,1,36,0.03,Low,25,1,0,0,42.443961,-76.493835,Cloudy,10/26/2025 16:00,Peak,16:00:00,17:00:00,A01,Proterra ZX5,36,2,TRUE,Urban,Route A - Downtown Loop,12.3,#1f77b4,14.2,0.29,Cloudy
10/26/2025 16:33,10/26/2025,C,Route C - Airport Connector,C-1-20251026-06,1,Inbound,C03,C-Stop 3,8,C02,10/26/2025 16:33,10/26/2025 16:33,-0.12,120,3,1,4,0,36,0,Low,24,1,0,0,42.46368,-76.454604,Cloudy,10/26/2025 16:00,Peak,16:00:00,17:00:00,C02,New Flyer Xcelsior,36,2,TRUE,Urban,Route C - Airport Connector,25.4,#2ca02c,14.2,0.29,Cloudy
10/26/2025 16:33,10/26/2025,B,Route B - University Express,B-0-20251026-06,0,Outbound,B07,B-Stop 7,7,B01,10/26/2025 16:31,10/26/2025 16:33,2.57,120,0,0,1,0,45,0,Low,37,1,0,0,42.461725,-76.462192,Cloudy,10/26/2025 16:00,Peak,16:00:00,17:00:00,B01,New Flyer Xcelsior,45,2,TRUE,Suburban,Route B - University Express,18.7,#ff7f0e,14.2,0.29,Cloudy
10/26/2025 16:35,10/26/2025,B,Route B - University Express,B-0-20251026-06,0,Outbound,B08,B-Stop 8,8,B01,10/26/2025 16:35,10/26/2025 16:35,0.01,120,2,2,0,2,45,0.04,Low,28,1,0,0,42.464251,-76.459312,Cloudy,10/26/2025 16:00,Peak,16:00:00,17:00:00,B01,New Flyer Xcelsior,45,2,TRUE,Suburban,Route B - University Express,18.7,#ff7f0e,14.2,0.29,Cloudy
10/26/2025 16:36,10/26/2025,C,Route C - Airport Connector,C-0-20251026-06,0,Outbound,C08,C-Stop 8,8,C01,10/26/2025 16:36,10/26/2025 16:36,-0.35,120,5,2,3,6,45,0.13,Low,39,1,0,0,42.474462,-76.438707,Cloudy,10/26/2025 16:00,Peak,16:00:00,17:00:00,C01,New Flyer Xcelsior,45,2,FALSE,Suburban,Route C - Airport Connector,25.4,#2ca02c,14.2,0.29,Cloudy
10/26/2025 16:36,10/26/2025,B,Route B - University Express,B-1-20251026-06,1,Inbound,B03,B-Stop 3,8,B01,10/26/2025 16:36,10/26/2025 16:36,-0.19,120,6,0,0,0,45,0,Low,15,0,0,0,42.453718,-76.473968,Cloudy,10/26/2025 16:00,Peak,16:00:00,17:00:00,B01,New Flyer Xcelsior,45,2,TRUE,Urban,Route B - University Express,18.7,#ff7f0e,14.2,0.29,Cloudy
10/26/2025 16:37,10/26/2025,A,Route A - Downtown Loop,A-0-20251026-06,0,Outbound,A09,A-Stop 9,9,A02,10/26/2025 16:36,10/26/2025 16:37,0.71,120,0,0,2,4,40,0.1,Low,21,1,0,0,42.455451,-76.475943,Cloudy,10/26/2025 16:00,Peak,16:00:00,17:00:00,A02,Proterra ZX5,40,2,TRUE,Suburban,Route A - Downtown Loop,12.3,#1f77b4,14.2,0.29,Cloudy
10/26/2025 16:37,10/26/2025,C,Route C - Airport Connector,C-1-20251026-06,1,Inbound,C02,C-Stop 2,9,C02,10/26/2025 16:38,10/26/2025 16:37,-0.45,120,1,1,3,0,36,0,Low,27,1,0,0,42.46192,-76.457217,Cloudy,10/26/2025 16:00,Peak,16:00:00,17:00:00,C02,New Flyer Xcelsior,36,2,TRUE,Urban,Route C - Airport Connector,25.4,#2ca02c,14.2,0.29,Cloudy
10/26/2025 16:38,10/26/2025,A,Route A - Downtown Loop,A-1-20251026-06,1,Inbound,A02,A-Stop 2,9,A01,10/26/2025 16:38,10/26/2025 16:38,0.15,120,1,1,2,0,36,0,Low,28,1,0,0,42.442054,-76.496366,Cloudy,10/26/2025 16:00,Peak,16:00:00,17:00:00,A01,Proterra ZX5,36,2,TRUE,Urban,Route A - Downtown Loop,12.3,#1f77b4,14.2,0.29,Cloudy
10/26/2025 16:40,10/26/2025,B,Route B - University Express,B-0-20251026-06,0,Outbound,B09,B-Stop 9,9,B01,10/26/2025 16:41,10/26/2025 16:40,-0.57,120,4,1,3,0,45,0,Low,27,1,0,0,42.466021,-76.456706,Cloudy,10/26/2025 16:00,Peak,16:00:00,17:00:00,B01,New Flyer Xcelsior,45,2,TRUE,Suburban,Route B - University Express,18.7,#ff7f0e,14.2,0.29,Cloudy
10/26/2025 16:41,10/26/2025,A,Route A - Downtown Loop,A-0-20251026-06,0,Outbound,A10,A-Stop 10,10,A02,10/26/2025 16:41,10/26/2025 16:41,-0.35,120,7,1,0,5,40,0.12,Low,24,1,0,0,42.457909,-76.47342,Cloudy,10/26/2025 16:00,Peak,16:00:00,17:00:00,A02,Proterra ZX5,40,2,TRUE,Suburban,Route A - Downtown Loop,12.3,#1f77b4,14.2,0.29,Cloudy
10/26/2025 16:41,10/26/2025,B,Route B - University Express,B-1-20251026-06,1,Inbound,B02,B-Stop 2,9,B01,10/26/2025 16:41,10/26/2025 16:41,-0.59,120,2,2,3,0,45,0,Low,26,1,0,0,42.452243,-76.477639,Cloudy,10/26/2025 16:00,Peak,16:00:00,17:00:00,B01,New Flyer Xcelsior,45,2,TRUE,Urban,Route B - University Express,18.7,#ff7f0e,14.2,0.29,Cloudy
10/26/2025 16:41,10/26/2025,A,Route A - Downtown Loop,A-1-20251026-06,1,Inbound,A01,A-Stop 1,10,A01,10/26/2025 16:42,10/26/2025 16:41,-0.84,120,0,0,2,0,36,0,Low,15,1,0,1,42.440414,-76.500015,Cloudy,10/26/2025 16:00,Peak,16:00:00,17:00:00,A01,Proterra ZX5,36,2,TRUE,Urban,Route A - Downtown Loop,12.3,#1f77b4,14.2,0.29,Cloudy
10/26/2025 16:42,10/26/2025,C,Route C - Airport Connector,C-0-20251026-06,0,Outbound,C09,C-Stop 9,9,C01,10/26/2025 16:41,10/26/2025 16:42,0.74,120,3,2,3,5,45,0.11,Low,20,1,0,0,42.475563,-76.43614,Cloudy,10/26/2025 16:00,Peak,16:00:00,17:00:00,C01,New Flyer Xcelsior,45,2,FALSE,Suburban,Route C - Airport Connector,25.4,#2ca02c,14.2,0.29,Cloudy
10/26/2025 16:45,10/26/2025,C,Route C - Airport Connector,C-1-20251026-06,1,Inbound,C01,C-Stop 1,10,C02,10/26/2025 16:43,10/26/2025 16:45,1.44,120,3,3,2,1,36,0.03,Low,29,1,0,0,42.459989,-76.460046,Cloudy,10/26/2025 16:00,Peak,16:00:00,17:00:00,C02,New Flyer Xcelsior,36,2,TRUE,Urban,Route C - Airport Connector,25.4,#2ca02c,14.2,0.29,Cloudy
10/26/2025 16:47,10/26/2025,B,Route B - University Express,B-1-20251026-06,1,Inbound,B01,B-Stop 1,10,B01,10/26/2025 16:46,10/26/2025 16:47,0.44,120,2,1,0,1,45,0.02,Low,15,1,0,0,42.450603,-76.480019,Cloudy,10/26/2025 16:00,Peak,16:00:00,17:00:00,B01,New Flyer Xcelsior,45,2,TRUE,Urban,Route B - University Express,18.7,#ff7f0e,14.2,0.29,Cloudy
10/26/2025 16:47,10/26/2025,C,Route C - Airport Connector,C-0-20251026-06,0,Outbound,C10,C-Stop 10,10,C01,10/26/2025 16:46,10/26/2025 16:47,0.53,120,1,1,0,6,45,0.13,Low,19,1,0,0,42.478076,-76.432818,Cloudy,10/26/2025 16:00,Peak,16:00:00,17:00:00,C01,New Flyer Xcelsior,45,2,FALSE,Suburban,Route C - Airport Connector,25.4,#2ca02c,14.2,0.29,Cloudy
10/26/2025 16:47,10/26/2025,B,Route B - University Express,B-0-20251026-06,0,Outbound,B10,B-Stop 10,10,B01,10/26/2025 16:46,10/26/2025 16:47,0.96,120,1,0,2,0,45,0,Low,16,1,0,0,42.46734,-76.453153,Cloudy,10/26/2025 16:00,Peak,16:00:00,17:00:00,B01,New Flyer Xcelsior,45,2,TRUE,Suburban,Route B - University Express,18.7,#ff7f0e,14.2,0.29,Cloudy
